{
"type": "FeatureCollection",
"name": "cool",
"crs": { "type": "name", "properties": { "name": "urn:ogc:def:crs:OGC:1.3:CRS84" } },
"features": [
{ "type": "Feature", "properties": { "주소": "경기도 김포시 통진읍 김포대로 2093-20", "쉼터명": "도사6리경로당", "유형": "특정계층이용시설-회원이용시설", "운영시간": "13:00 ~ 17:00 (월-일)", "대상": "특정인 이용가능" }, "geometry": { "type": "Point", "coordinates": [ 126.611756932205338, 37.683383444946763 ] } },
{ "type": "Feature", "properties": { "주소": "경기도 김포시 통진읍 조강로 132", "쉼터명": "통진도서관", "유형": "공공시설-복지·문화·체육시설", "운영시간": "09:00 ~ 22:00 (월", "대상": "누구나 이용가능" }, "geometry": { "type": "Point", "coordinates": [ 126.592040525217101, 37.693977721784556 ] } },
{ "type": "Feature", "properties": { "주소": "경기도 김포시 통진읍 소서명로 31", "쉼터명": "서암2리경로당", "유형": "특정계층이용시설-회원이용시설", "운영시간": "09:00 ~ 17:00 (월-일)", "대상": "특정인 이용가능" }, "geometry": { "type": "Point", "coordinates": [ 126.605129751581629, 37.699021145083009 ] } },
{ "type": "Feature", "properties": { "주소": "경기도 김포시 통진읍 김포대로1938번길 60", "쉼터명": "수참2리경로당", "유형": "특정계층이용시설-회원이용시설", "운영시간": "13:00 ~ 17:00 (월-일)", "대상": "특정인 이용가능" }, "geometry": { "type": "Point", "coordinates": [ 126.630230483540856, 37.680044076069343 ] } },
{ "type": "Feature", "properties": { "주소": "경기도 김포시 통진읍 하성로102번길 20-1", "쉼터명": "수참1리경로당", "유형": "특정계층이용시설-회원이용시설", "운영시간": "13:00 ~ 17:00 (월-일)", "대상": "특정인 이용가능" }, "geometry": { "type": "Point", "coordinates": [ 126.632777642315432, 37.683830203627245 ] } },
{ "type": "Feature", "properties": { "주소": "경기도 김포시 통진읍 마송1로16번길 18-41", "쉼터명": "가현5리경로당", "유형": "특정계층이용시설-회원이용시설", "운영시간": "09:00 ~ 17:00 (월-일)", "대상": "특정인 이용가능" }, "geometry": { "type": "Point", "coordinates": [ 126.606518955966095, 37.68223911110843 ] } },
{ "type": "Feature", "properties": { "주소": "경기도 김포시 통진읍 가현로105번길 54", "쉼터명": "가현4리경로당", "유형": "특정계층이용시설-회원이용시설", "운영시간": "13:00 ~ 17:00 (월-일)", "대상": "특정인 이용가능" }, "geometry": { "type": "Point", "coordinates": [ 126.583256546045348, 37.67398383361828 ] } },
{ "type": "Feature", "properties": { "주소": "경기도 김포시 통진읍 가현로 240", "쉼터명": "가현2리경로당", "유형": "특정계층이용시설-회원이용시설", "운영시간": "09:00 ~ 17:00 (월-일)", "대상": "특정인 이용가능" }, "geometry": { "type": "Point", "coordinates": [ 126.595103648383386, 37.681868155366097 ] } },
{ "type": "Feature", "properties": { "주소": "경기도 김포시 통진읍 동을산로133번길 36", "쉼터명": "동을산리경로당", "유형": "특정계층이용시설-회원이용시설", "운영시간": "13:00 ~ 17:00 (월-일)", "대상": "특정인 이용가능" }, "geometry": { "type": "Point", "coordinates": [ 126.62338751700959, 37.702001777299238 ] } },
{ "type": "Feature", "properties": { "주소": "경기도 김포시 통진읍 동을산로 130", "쉼터명": "동을산2리경로당", "유형": "특정계층이용시설-회원이용시설", "운영시간": "09:00 ~ 17:00 (월-일)", "대상": "특정인 이용가능" }, "geometry": { "type": "Point", "coordinates": [ 126.623296693346433, 37.700133848088313 ] } },
{ "type": "Feature", "properties": { "주소": "경기도 김포시 통진읍 월하로 515", "쉼터명": "귀전2리경로당", "유형": "특정계층이용시설-회원이용시설", "운영시간": "13:00 ~ 17:00 (월-일)", "대상": "특정인 이용가능" }, "geometry": { "type": "Point", "coordinates": [ 126.613002120020823, 37.712363157045331 ] } },
{ "type": "Feature", "properties": { "주소": "경기도 김포시 통진읍 귀전로 116", "쉼터명": "귀전1리경로당", "유형": "특정계층이용시설-회원이용시설", "운영시간": "13:00 ~ 17:00 (월-일)", "대상": "특정인 이용가능" }, "geometry": { "type": "Point", "coordinates": [ 126.610934752434503, 37.720205195521274 ] } },
{ "type": "Feature", "properties": { "주소": "경기도 김포시 통진읍 고정로218번길 43", "쉼터명": "고정1리경로당", "유형": "특정계층이용시설-회원이용시설", "운영시간": "13:00 ~ 17:00 (월-일)", "대상": "특정인 이용가능" }, "geometry": { "type": "Point", "coordinates": [ 126.591977317146743, 37.721738884838203 ] } },
{ "type": "Feature", "properties": { "주소": "경기도 김포시 통진읍 고정1로82번길 20-13", "쉼터명": "고정3리경로당", "유형": "특정계층이용시설-회원이용시설", "운영시간": "13:00 ~ 17:00 (월-일)", "대상": "특정인 이용가능" }, "geometry": { "type": "Point", "coordinates": [ 126.598436281068473, 37.718991295156805 ] } },
{ "type": "Feature", "properties": { "주소": "경기도 김포시 통진읍 월하로301번길 222", "쉼터명": "고정2리경로당", "유형": "특정계층이용시설-회원이용시설", "운영시간": "13:00 ~ 17:00 (월-일)", "대상": "특정인 이용가능" }, "geometry": { "type": "Point", "coordinates": [ 126.594114245530491, 37.713905407940437 ] } },
{ "type": "Feature", "properties": { "주소": "경기도 김포시 통진읍 옹달샘로 68", "쉼터명": "옹정3리경로당", "유형": "특정계층이용시설-회원이용시설", "운영시간": "09:00 ~ 17:00 (월-일)", "대상": "특정인 이용가능" }, "geometry": { "type": "Point", "coordinates": [ 126.571586205650775, 37.697342611616222 ] } },
{ "type": "Feature", "properties": { "주소": "경기도 김포시 통진읍 옹정로 146", "쉼터명": "옹정2리경로당", "유형": "특정계층이용시설-회원이용시설", "운영시간": "13:00 ~ 17:00 (월-일)", "대상": "특정인 이용가능" }, "geometry": { "type": "Point", "coordinates": [ 126.568287760514863, 37.692045698892471 ] } },
{ "type": "Feature", "properties": { "주소": "경기도 김포시 통진읍 소서명로 67", "쉼터명": "서암1리경로당", "유형": "특정계층이용시설-회원이용시설", "운영시간": "13:00 ~ 17:00 (월-일)", "대상": "특정인 이용가능" }, "geometry": { "type": "Point", "coordinates": [ 126.606495578474139, 37.701917120837891 ] } },
{ "type": "Feature", "properties": { "주소": "경기도 김포시 통진읍 조강로56번길 51-9", "쉼터명": "통진경로당", "유형": "특정계층이용시설-회원이용시설", "운영시간": "13:00 ~ 17:00 (월-일)", "대상": "특정인 이용가능" }, "geometry": { "type": "Point", "coordinates": [ 126.600979345690533, 37.692787198029606 ] } },
{ "type": "Feature", "properties": { "주소": "경기도 김포시 통진읍 도이곶로37번길 19", "쉼터명": "도사2리경로당", "유형": "특정계층이용시설-회원이용시설", "운영시간": "09:00 ~ 17:00 (월-일)", "대상": "특정인 이용가능" }, "geometry": { "type": "Point", "coordinates": [ 126.61424197418134, 37.687868852330695 ] } },
{ "type": "Feature", "properties": { "주소": "경기도 김포시 통진읍 김포대로2004번길 89", "쉼터명": "도사4리경로당", "유형": "특정계층이용시설-회원이용시설", "운영시간": "13:00 ~ 17:00 (월-일)", "대상": "특정인 이용가능" }, "geometry": { "type": "Point", "coordinates": [ 126.617818290733368, 37.684524693938272 ] } },
{ "type": "Feature", "properties": { "주소": "경기도 김포시 통진읍 김포대로 1991", "쉼터명": "도사7리신일아파트경로당", "유형": "특정계층이용시설-회원이용시설", "운영시간": "13:00 ~ 17:00 (월-일)", "대상": "특정인 이용가능" }, "geometry": { "type": "Point", "coordinates": [ 126.621544121794287, 37.679593841541319 ] } },
{ "type": "Feature", "properties": { "주소": "경기도 김포시 통진읍 흥신로254번길 10-52", "쉼터명": "도사3리경로당", "유형": "특정계층이용시설-회원이용시설", "운영시간": "13:00 ~ 17:00 (월-일)", "대상": "특정인 이용가능" }, "geometry": { "type": "Point", "coordinates": [ 126.61362404999258, 37.680332758354098 ] } },
{ "type": "Feature", "properties": { "주소": "경기도 김포시 통진읍 율마로450번길 73-26", "쉼터명": "도사1리경로당", "유형": "특정계층이용시설-회원이용시설", "운영시간": "13:00 ~ 17:00 (월-일)", "대상": "특정인 이용가능" }, "geometry": { "type": "Point", "coordinates": [ 126.608375228969891, 37.689354660101415 ] } },
{ "type": "Feature", "properties": { "주소": "경기도 김포시 통진읍 김포대로1961번길 22-1", "쉼터명": "도사5리경로당", "유형": "특정계층이용시설-회원이용시설", "운영시간": "13:00 ~ 17:00 (월-일)", "대상": "특정인 이용가능" }, "geometry": { "type": "Point", "coordinates": [ 126.624116850095831, 37.67934604856984 ] } },
{ "type": "Feature", "properties": { "주소": "경기도 김포시 통진읍 마송1로 9", "쉼터명": "마송LH3단지아파트경로당", "유형": "특정계층이용시설-회원이용시설", "운영시간": "13:00 ~ 17:00 (월-일)", "대상": "특정인 이용가능" }, "geometry": { "type": "Point", "coordinates": [ 126.60474441300893, 37.6843052627069 ] } },
{ "type": "Feature", "properties": { "주소": "경기도 김포시 통진읍 마송1로 77", "쉼터명": "통진읍행정복지센터", "유형": "공공시설-공공청사", "운영시간": "09:00 ~ 18:00 (월-금)", "대상": "누구나 이용가능" }, "geometry": { "type": "Point", "coordinates": [ 126.600627081027653, 37.68644250887732 ] } },
{ "type": "Feature", "properties": { "주소": "경기도 김포시 통진읍 율마로438번길 51", "쉼터명": "김포마송LH5단지 경로당", "유형": "특정계층이용시설-회원이용시설", "운영시간": "13:00 ~ 17:00 (월-일)", "대상": "특정인 이용가능" }, "geometry": { "type": "Point", "coordinates": [ 126.605975454152187, 37.688326868545872 ] } },
{ "type": "Feature", "properties": { "주소": "경기도 김포시 통진읍 마송1로 122", "쉼터명": "e편한세상로얄하임경로당", "유형": "특정계층이용시설-회원이용시설", "운영시간": "13:00 ~ 17:00 (월-일)", "대상": "특정인 이용가능" }, "geometry": { "type": "Point", "coordinates": [ 126.596831677222454, 37.68941737052269 ] } },
{ "type": "Feature", "properties": { "주소": "경기도 김포시 통진읍 김포대로2250번길 23-14", "쉼터명": "소망마을경로당", "유형": "특정계층이용시설-회원이용시설", "운영시간": "09:00 ~ 18:00 (월-금)", "대상": "특정인 이용가능" }, "geometry": { "type": "Point", "coordinates": [ 126.596110545187244, 37.691755237080102 ] } },
{ "type": "Feature", "properties": { "주소": "경기도 김포시 통진읍 김포대로2270번길 29", "쉼터명": "마송6리(현대1차아파트)경로당", "유형": "특정계층이용시설-회원이용시설", "운영시간": "13:00 ~ 17:00 (월-일)", "대상": "특정인 이용가능" }, "geometry": { "type": "Point", "coordinates": [ 126.59378840889471, 37.69187145320852 ] } },
{ "type": "Feature", "properties": { "주소": "경기도 김포시 통진읍 마송2로104번길 43", "쉼터명": "마송2리경로당", "유형": "특정계층이용시설-회원이용시설", "운영시간": "09:00 ~ 17:00 (월-일)", "대상": "특정인 이용가능" }, "geometry": { "type": "Point", "coordinates": [ 126.591410210282419, 37.685124505620038 ] } },
{ "type": "Feature", "properties": { "주소": "경기도 김포시 통진읍 김포대로 2282", "쉼터명": "마송현대2차아파트경로당", "유형": "특정계층이용시설-회원이용시설", "운영시간": "13:00 ~ 17:00 (월-일)", "대상": "특정인 이용가능" }, "geometry": { "type": "Point", "coordinates": [ 126.592792867600295, 37.692179246074637 ] } },
{ "type": "Feature", "properties": { "주소": "경기도 김포시 통진읍 마송1로 133", "쉼터명": "마송4리경로당", "유형": "특정계층이용시설-회원이용시설", "운영시간": "11:00 ~ 18:00 (월-일)", "대상": "특정인 이용가능" }, "geometry": { "type": "Point", "coordinates": [ 126.594380535030567, 37.688462537174161 ] } },
{ "type": "Feature", "properties": { "주소": "경기도 김포시 통진읍 마송1로 134-25", "쉼터명": "마송휴먼시아매수리마을10단지경로당", "유형": "특정계층이용시설-회원이용시설", "운영시간": "09:00 ~ 17:00 (월-일)", "대상": "특정인 이용가능" }, "geometry": { "type": "Point", "coordinates": [ 126.592212073145234, 37.690100621678567 ] } },
{ "type": "Feature", "properties": { "주소": "경기도 김포시 고촌읍 태리로190번길 79-4", "쉼터명": "신촌경로당", "유형": "특정계층이용시설-회원이용시설", "운영시간": "13:00 ~ 17:00 (월-일)", "대상": "특정인 이용가능" }, "geometry": { "type": "Point", "coordinates": [ 126.751436886760402, 37.594185726853716 ] } },
{ "type": "Feature", "properties": { "주소": "경기도 김포시 고촌읍 수기로 8", "쉼터명": "한화경로당", "유형": "특정계층이용시설-회원이용시설", "운영시간": "13:00 ~ 17:00 (월-일)", "대상": "특정인 이용가능" }, "geometry": { "type": "Point", "coordinates": [ 126.764870781203214, 37.60239398538863 ] } },
{ "type": "Feature", "properties": { "주소": "경기도 김포시 고촌읍 태리로 236", "쉼터명": "캐슬앤파밀리에시티1단지경로당", "유형": "특정계층이용시설-회원이용시설", "운영시간": "13:00 ~ 17:00 (월-일)", "대상": "특정인 이용가능" }, "geometry": { "type": "Point", "coordinates": [ 126.757487341928595, 37.593060858083007 ] } },
{ "type": "Feature", "properties": { "주소": "경기도 김포시 고촌읍 신곡로3번길 34-16", "쉼터명": "동일하이빌경로당", "유형": "특정계층이용시설-회원이용시설", "운영시간": "13:00 ~ 17:00 (월-일)", "대상": "특정인 이용가능" }, "geometry": { "type": "Point", "coordinates": [ 126.774686691294946, 37.603497310612809 ] } },
{ "type": "Feature", "properties": { "주소": "경기도 김포시 고촌읍 장차로 25", "쉼터명": "고송경로당", "유형": "특정계층이용시설-회원이용시설", "운영시간": "13:00 ~ 17:00 (월-일)", "대상": "특정인 이용가능" }, "geometry": { "type": "Point", "coordinates": [ 126.769776073417844, 37.604291658223644 ] } },
{ "type": "Feature", "properties": { "주소": "경기도 김포시 고촌읍 신곡로 33", "쉼터명": "청도솔리움아파트경로당", "유형": "특정계층이용시설-회원이용시설", "운영시간": "13:00 ~ 17:00 (월-일)", "대상": "특정인 이용가능" }, "geometry": { "type": "Point", "coordinates": [ 126.774969977022437, 37.605691627843044 ] } },
{ "type": "Feature", "properties": { "주소": "경기도 김포시 고촌읍 고송로 17", "쉼터명": "대우아파트경로당", "유형": "특정계층이용시설-회원이용시설", "운영시간": "13:00 ~ 17:00 (월-일)", "대상": "특정인 이용가능" }, "geometry": { "type": "Point", "coordinates": [ 126.768538873589492, 37.605800822464929 ] } },
{ "type": "Feature", "properties": { "주소": "경기도 김포시 고촌읍 전호로26번길 4", "쉼터명": "전호1리경로당", "유형": "특정계층이용시설-회원이용시설", "운영시간": "13:00 ~ 17:00 (월-일)", "대상": "특정인 이용가능" }, "geometry": { "type": "Point", "coordinates": [ 126.794970357521862, 37.601603524266558 ] } },
{ "type": "Feature", "properties": { "주소": "경기도 김포시 고촌읍 장차로 14", "쉼터명": "고촌읍행정복지센터", "유형": "공공시설-공공청사", "운영시간": "09:00 ~ 18:00 (월-금)", "대상": "누구나 이용가능" }, "geometry": { "type": "Point", "coordinates": [ 126.771020794457456, 37.60329637985339 ] } },
{ "type": "Feature", "properties": { "주소": "경기도 김포시 양촌읍 양곡1로68번길 37", "쉼터명": "양촌읍행정복지센터및북카페", "유형": "공공시설-공공청사", "운영시간": "09:00 ~ 18:00 (월-금)", "대상": "누구나 이용가능" }, "geometry": { "type": "Point", "coordinates": [ 126.625431938871841, 37.657207832689892 ] } },
{ "type": "Feature", "properties": { "주소": "경기도 김포시 양촌읍 삼도로 302", "쉼터명": "학운4리경로당", "유형": "특정계층이용시설-회원이용시설", "운영시간": "13:00 ~ 17:00 (월-일)", "대상": "특정인 이용가능" }, "geometry": { "type": "Point", "coordinates": [ 126.600284769334877, 37.617728939563193 ] } },
{ "type": "Feature", "properties": { "주소": "경기도 김포시 양촌읍 고음달로 88-1", "쉼터명": "학운6리경로당", "유형": "특정계층이용시설-회원이용시설", "운영시간": "13:00 ~ 17:00 (월-일)", "대상": "특정인 이용가능" }, "geometry": { "type": "Point", "coordinates": [ 126.599926663291043, 37.619902983918095 ] } },
{ "type": "Feature", "properties": { "주소": "경기도 김포시 양촌읍 양곡2로 5-4", "쉼터명": "구래4리경로당", "유형": "특정계층이용시설-회원이용시설", "운영시간": "13:00 ~ 17:00 (월-일)", "대상": "특정인 이용가능" }, "geometry": { "type": "Point", "coordinates": [ 126.626710908602547, 37.652122919871374 ] } },
{ "type": "Feature", "properties": { "주소": "경기도 김포시 양촌읍 김포대로1750번길 96", "쉼터명": "누산1리경로당", "유형": "특정계층이용시설-회원이용시설", "운영시간": "13:00 ~ 17:00 (월-일)", "대상": "특정인 이용가능" }, "geometry": { "type": "Point", "coordinates": [ 126.643506539304965, 37.672716160080903 ] } },
{ "type": "Feature", "properties": { "주소": "경기도 김포시 양촌읍 양곡1로 77", "쉼터명": "양곡9리경로당", "유형": "특정계층이용시설-회원이용시설", "운영시간": "13:00 ~ 17:00 (월-일)", "대상": "특정인 이용가능" }, "geometry": { "type": "Point", "coordinates": [ 126.621905598884439, 37.656745875689289 ] } },
{ "type": "Feature", "properties": { "주소": "경기도 김포시 양촌읍 양곡1로 66-8", "쉼터명": "양곡16리경로당", "유형": "특정계층이용시설-회원이용시설", "운영시간": "13:00 ~ 17:00 (월-일)", "대상": "특정인 이용가능" }, "geometry": { "type": "Point", "coordinates": [ 126.623499259826332, 37.656392784548096 ] } },
{ "type": "Feature", "properties": { "주소": "경기도 김포시 양촌읍 양곡로390번길 43", "쉼터명": "양능마을경로당", "유형": "특정계층이용시설-회원이용시설", "운영시간": "13:00 ~ 17:00 (월-일)", "대상": "특정인 이용가능" }, "geometry": { "type": "Point", "coordinates": [ 126.635296014348128, 37.664498448251507 ] } },
{ "type": "Feature", "properties": { "주소": "경기도 김포시 양촌읍 양곡1로68번길 59", "쉼터명": "삼정그린코아경로당", "유형": "특정계층이용시설-회원이용시설", "운영시간": "13:00 ~ 17:00 (월-일)", "대상": "특정인 이용가능" }, "geometry": { "type": "Point", "coordinates": [ 126.626479972524834, 37.658195011775142 ] } },
{ "type": "Feature", "properties": { "주소": "경기도 김포시 양촌읍 양곡4로197번길 40", "쉼터명": "양곡도서관", "유형": "공공시설-복지·문화·체육시설", "운영시간": "09:00 ~ 22:00 (월-목)", "대상": "누구나 이용가능" }, "geometry": { "type": "Point", "coordinates": [ 126.631473575242552, 37.661626879906294 ] } },
{ "type": "Feature", "properties": { "주소": "경기도 김포시 대곶면 용두로 4", "쉼터명": "초원2리경로당", "유형": "특정계층이용시설-회원이용시설", "운영시간": "13:00 ~ 17:00 (월-일)", "대상": "특정인 이용가능" }, "geometry": { "type": "Point", "coordinates": [ 126.596225783895889, 37.65834325748007 ] } },
{ "type": "Feature", "properties": { "주소": "경기도 김포시 대곶면 율생중앙로206번길 145", "쉼터명": "송마1리경로당", "유형": "특정계층이용시설-회원이용시설", "운영시간": "13:00 ~ 17:00 (월-일)", "대상": "특정인 이용가능" }, "geometry": { "type": "Point", "coordinates": [ 126.579356993941715, 37.665739289619971 ] } },
{ "type": "Feature", "properties": { "주소": "경기도 김포시 대곶면 산자뫼로 102", "쉼터명": "송마3리경로당", "유형": "특정계층이용시설-회원이용시설", "운영시간": "13:00 ~ 17:00 (월-일)", "대상": "특정인 이용가능" }, "geometry": { "type": "Point", "coordinates": [ 126.564995769200891, 37.655291403167624 ] } },
{ "type": "Feature", "properties": { "주소": "경기도 김포시 대곶면 쇄암로 128", "쉼터명": "쇄암리경로당", "유형": "특정계층이용시설-회원이용시설", "운영시간": "13:00 ~ 17:00 (월-일)", "대상": "특정인 이용가능" }, "geometry": { "type": "Point", "coordinates": [ 126.541784390746557, 37.678890233069914 ] } },
{ "type": "Feature", "properties": { "주소": "경기도 김포시 대곶면 율생로 83-23", "쉼터명": "대곶면행정복지센터", "유형": "공공시설-공공청사", "운영시간": "09:00 ~ 18:00 (월-금)", "대상": "누구나 이용가능" }, "geometry": { "type": "Point", "coordinates": [ 126.58218721284787, 37.649346393216597 ] } },
{ "type": "Feature", "properties": { "주소": "경기도 김포시 월곶면 군하로 263", "쉼터명": "월곶면행정복지센터", "유형": "공공시설-공공청사", "운영시간": "09:00 ~ 18:00 (월-금)", "대상": "누구나 이용가능" }, "geometry": { "type": "Point", "coordinates": [ 126.55287356648941, 37.715119495505661 ] } },
{ "type": "Feature", "properties": { "주소": "경기도 김포시 월곶면 용강로437번길 98", "쉼터명": "용강리경로당", "유형": "특정계층이용시설-회원이용시설", "운영시간": "13:00 ~ 17:00 (월-일)", "대상": "특정인 이용가능" }, "geometry": { "type": "Point", "coordinates": [ 126.552732693368895, 37.758682044708245 ] } },
{ "type": "Feature", "properties": { "주소": "경기도 김포시 월곶면 김포대학로 232-1", "쉼터명": "고막1리경로당", "유형": "특정계층이용시설-회원이용시설", "운영시간": "13:00 ~ 17:00 (월-일)", "대상": "특정인 이용가능" }, "geometry": { "type": "Point", "coordinates": [ 126.557495974451399, 37.725201995609467 ] } },
{ "type": "Feature", "properties": { "주소": "경기도 김포시 월곶면 문수산로252번길 7", "쉼터명": "성동2리경로당", "유형": "특정계층이용시설-회원이용시설", "운영시간": "13:00 ~ 17:00 (월-일)", "대상": "특정인 이용가능" }, "geometry": { "type": "Point", "coordinates": [ 126.535996108533311, 37.750763954971724 ] } },
{ "type": "Feature", "properties": { "주소": "경기도 김포시 월곶면 포내로83번길 24", "쉼터명": "포내1리경로당", "유형": "특정계층이용시설-회원이용시설", "운영시간": "13:00 ~ 17:00 (월-일)", "대상": "특정인 이용가능" }, "geometry": { "type": "Point", "coordinates": [ 126.527503530970364, 37.720777328895934 ] } },
{ "type": "Feature", "properties": { "주소": "경기도 김포시 월곶면 고양로115번길 209", "쉼터명": "고양1리경로당", "유형": "특정계층이용시설-회원이용시설", "운영시간": "13:00 ~ 17:00 (월-일)", "대상": "특정인 이용가능" }, "geometry": { "type": "Point", "coordinates": [ 126.553706477237483, 37.687818225460902 ] } },
{ "type": "Feature", "properties": { "주소": "경기도 김포시 하성면 월하로672번길 38-4", "쉼터명": "원산2리경로당", "유형": "특정계층이용시설-회원이용시설", "운영시간": "13:00 ~ 17:00 (월-일)", "대상": "특정인 이용가능" }, "geometry": { "type": "Point", "coordinates": [ 126.628804733678635, 37.70744271595602 ] } },
{ "type": "Feature", "properties": { "주소": "경기도 김포시 하성면 하성로678번길 64", "쉼터명": "양택1리경로당", "유형": "특정계층이용시설-회원이용시설", "운영시간": "13:00 ~ 17:00 (월-일)", "대상": "특정인 이용가능" }, "geometry": { "type": "Point", "coordinates": [ 126.631335044315406, 37.731996388080468 ] } },
{ "type": "Feature", "properties": { "주소": "경기도 김포시 하성면 가금로 282", "쉼터명": "가금1리경로당무더위쉼터", "유형": "특정계층이용시설-회원이용시설", "운영시간": "09:00 ~ 17:00 (월-일)", "대상": "특정인 이용가능" }, "geometry": { "type": "Point", "coordinates": [ 126.618307883787196, 37.743538864474402 ] } },
{ "type": "Feature", "properties": { "주소": "경기도 김포시 하성면 하성로 914", "쉼터명": "마조2리경로당", "유형": "특정계층이용시설-회원이용시설", "운영시간": "13:00 ~ 17:00 (월-일)", "대상": "특정인 이용가능" }, "geometry": { "type": "Point", "coordinates": [ 126.633853392319494, 37.752722343424963 ] } },
{ "type": "Feature", "properties": { "주소": "경기도 김포시 하성면 하성로1141번길 123", "쉼터명": "시암2리경로당", "유형": "특정계층이용시설-회원이용시설", "운영시간": "13:00 ~ 17:00 (월-일)", "대상": "특정인 이용가능" }, "geometry": { "type": "Point", "coordinates": [ 126.643860599693795, 37.766616424008838 ] } },
{ "type": "Feature", "properties": { "주소": "경기도 김포시 하성면 석평로 108-1", "쉼터명": "석탄2리경로당", "유형": "특정계층이용시설-회원이용시설", "운영시간": "11:00 ~ 17:00 (월-일)", "대상": "특정인 이용가능" }, "geometry": { "type": "Point", "coordinates": [ 126.645374971153373, 37.722763790935346 ] } },
{ "type": "Feature", "properties": { "주소": "경기도 김포시 하성면 석평로184번길 112-5", "쉼터명": "석탄4리경로당", "유형": "특정계층이용시설-회원이용시설", "운영시간": "11:00 ~ 17:00 (월-일)", "대상": "특정인 이용가능" }, "geometry": { "type": "Point", "coordinates": [ 126.656932285279566, 37.728732092882375 ] } },
{ "type": "Feature", "properties": { "주소": "경기도 김포시 하성면 하성로 480-17", "쉼터명": "마곡4리경로당", "유형": "특정계층이용시설-회원이용시설", "운영시간": "13:00 ~ 17:00 (월-일)", "대상": "특정인 이용가능" }, "geometry": { "type": "Point", "coordinates": [ 126.636759605011321, 37.718493288032249 ] } },
{ "type": "Feature", "properties": { "주소": "경기도 김포시 하성면 애기봉로 845", "쉼터명": "하성면행정복지센터", "유형": "공공시설-공공청사", "운영시간": "09:00 ~ 18:00 (월-금)", "대상": "누구나 이용가능" }, "geometry": { "type": "Point", "coordinates": [ 126.631333544711879, 37.720183836160402 ] } },
{ "type": "Feature", "properties": { "주소": "경기도 김포시 하성면 석평로166번길 19", "쉼터명": "석탄3리경로당", "유형": "특정계층이용시설-회원이용시설", "운영시간": "13:00 ~ 17:00 (월-일)", "대상": "특정인 이용가능" }, "geometry": { "type": "Point", "coordinates": [ 126.651153536441342, 37.724845650414174 ] } },
{ "type": "Feature", "properties": { "주소": "경기도 김포시 하성면 석평로 222", "쉼터명": "석탄5리경로당", "유형": "특정계층이용시설-회원이용시설", "운영시간": "13:00 ~ 17:00 (월-일)", "대상": "특정인 이용가능" }, "geometry": { "type": "Point", "coordinates": [ 126.652000219287245, 37.730014634482117 ] } },
{ "type": "Feature", "properties": { "주소": "경기도 김포시 하성면 애기봉로806번길 68-13", "쉼터명": "마곡1리경로당", "유형": "특정계층이용시설-회원이용시설", "운영시간": "13:00 ~ 17:00 (월-일)", "대상": "특정인 이용가능" }, "geometry": { "type": "Point", "coordinates": [ 126.630779949930329, 37.718742663826845 ] } },
{ "type": "Feature", "properties": { "주소": "경기도 김포시 하성면 마근포로 123-2", "쉼터명": "마근포리경로당", "유형": "특정계층이용시설-회원이용시설", "운영시간": "13:00 ~ 17:00 (월-일)", "대상": "특정인 이용가능" }, "geometry": { "type": "Point", "coordinates": [ 126.624610748421361, 37.753170544782527 ] } },
{ "type": "Feature", "properties": { "주소": "경기도 김포시 북변1로 13", "쉼터명": "김포본동행정복지센터", "유형": "공공시설-공공청사", "운영시간": "09:00 ~ 18:00 (월-금)", "대상": "누구나 이용가능" }, "geometry": { "type": "Point", "coordinates": [ 126.705738609922122, 37.62756682213135 ] } },
{ "type": "Feature", "properties": { "주소": "경기도 김포시 봉화로182번길 33", "쉼터명": "북변대우아파트경로당", "유형": "특정계층이용시설-회원이용시설", "운영시간": "10:00 ~ 17:00 (월-일)", "대상": "특정인 이용가능" }, "geometry": { "type": "Point", "coordinates": [ 126.703652146041478, 37.629886199007878 ] } },
{ "type": "Feature", "properties": { "주소": "경기도 김포시 감정로 64", "쉼터명": "신안실크밸리경로당", "유형": "특정계층이용시설-회원이용시설", "운영시간": "09:00 ~ 18:00 (월-일)", "대상": "특정인 이용가능" }, "geometry": { "type": "Point", "coordinates": [ 126.700004040055475, 37.618426938359462 ] } },
{ "type": "Feature", "properties": { "주소": "경기도 김포시 봉화로167번길 35-9", "쉼터명": "건영아파트경로당", "유형": "특정계층이용시설-회원이용시설", "운영시간": "09:00 ~ 17:00 (월-일)", "대상": "특정인 이용가능" }, "geometry": { "type": "Point", "coordinates": [ 126.702432469716555, 37.625702643042509 ] } },
{ "type": "Feature", "properties": { "주소": "경기도 김포시 감정로 75", "쉼터명": "신안실크밸리(2차)경로당", "유형": "특정계층이용시설-회원이용시설", "운영시간": "09:00 ~ 17:00 (월-일)", "대상": "특정인 이용가능" }, "geometry": { "type": "Point", "coordinates": [ 126.703875393659402, 37.617038459073527 ] } },
{ "type": "Feature", "properties": { "주소": "경기도 김포시 봉화로181번길 31-14", "쉼터명": "한국아파트경로당", "유형": "특정계층이용시설-회원이용시설", "운영시간": "10:00 ~ 17:00 (월-일)", "대상": "특정인 이용가능" }, "geometry": { "type": "Point", "coordinates": [ 126.700530199227032, 37.625904767349823 ] } },
{ "type": "Feature", "properties": { "주소": "경기도 김포시 북변1로16번길 34", "쉼터명": "산호아파트경로당", "유형": "특정계층이용시설-회원이용시설", "운영시간": "10:00 ~ 17:00 (월-일)", "대상": "특정인 이용가능" }, "geometry": { "type": "Point", "coordinates": [ 126.705332088961157, 37.628933298459884 ] } },
{ "type": "Feature", "properties": { "주소": "경기도 김포시 김포한강1로 9", "쉼터명": "반도유보라경로당", "유형": "특정계층이용시설-회원이용시설", "운영시간": "13:00 ~ 17:00 (월-일)", "대상": "특정인 이용가능" }, "geometry": { "type": "Point", "coordinates": [ 126.66439260291655, 37.640219831519232 ] } },
{ "type": "Feature", "properties": { "주소": "경기도 김포시 김포한강3로 290-16", "쉼터명": "이니스더원경로당", "유형": "특정계층이용시설-회원이용시설", "운영시간": "13:00 ~ 17:00 (월-일)", "대상": "특정인 이용가능" }, "geometry": { "type": "Point", "coordinates": [ 126.662432749419139, 37.64204617576263 ] } },
{ "type": "Feature", "properties": { "주소": "경기도 김포시 청송로 70", "쉼터명": "청송1단지아파트경로당", "유형": "특정계층이용시설-회원이용시설", "운영시간": "13:00 ~ 17:00 (월-일)", "대상": "특정인 이용가능" }, "geometry": { "type": "Point", "coordinates": [ 126.671059305556071, 37.65060422904849 ] } },
{ "type": "Feature", "properties": { "주소": "경기도 김포시 청송로 20", "쉼터명": "청송2단지아파트경로당", "유형": "특정계층이용시설-회원이용시설", "운영시간": "13:00 ~ 17:00 (월-일)", "대상": "특정인 이용가능" }, "geometry": { "type": "Point", "coordinates": [ 126.668337124382433, 37.646142305540806 ] } },
{ "type": "Feature", "properties": { "주소": "경기도 김포시 청송로 19", "쉼터명": "청송3단지경로당", "유형": "특정계층이용시설-회원이용시설", "운영시간": "13:00 ~ 17:00 (월-일)", "대상": "특정인 이용가능" }, "geometry": { "type": "Point", "coordinates": [ 126.665937057678391, 37.648940180796764 ] } },
{ "type": "Feature", "properties": { "주소": "경기도 김포시 김포한강2로 192", "쉼터명": "자연앤어울림경로당", "유형": "특정계층이용시설-회원이용시설", "운영시간": "13:00 ~ 17:00 (월-일)", "대상": "특정인 이용가능" }, "geometry": { "type": "Point", "coordinates": [ 126.664943715491006, 37.644067674206269 ] } },
{ "type": "Feature", "properties": { "주소": "경기도 김포시 운곡로 17-5", "쉼터명": "운곡경로당", "유형": "특정계층이용시설-회원이용시설", "운영시간": "13:00 ~ 17:00 (월-일)", "대상": "특정인 이용가능" }, "geometry": { "type": "Point", "coordinates": [ 126.659917005656382, 37.649942398792241 ] } },
{ "type": "Feature", "properties": { "주소": "경기도 김포시 김포대로 1433", "쉼터명": "장기본동행정복지센터", "유형": "공공시설-공공청사", "운영시간": "09:00 ~ 18:00 (월-금)", "대상": "누구나 이용가능" }, "geometry": { "type": "Point", "coordinates": [ 126.671712191208599, 37.652301413778112 ] } },
{ "type": "Feature", "properties": { "주소": "경기도 김포시 풍무로 232", "쉼터명": "길훈4차경로당", "유형": "특정계층이용시설-회원이용시설", "운영시간": "13:00 ~ 17:00 (월-일)", "대상": "특정인 이용가능" }, "geometry": { "type": "Point", "coordinates": [ 126.725779824216474, 37.615345513158239 ] } },
{ "type": "Feature", "properties": { "주소": "경기도 김포시 풍무로208번길 21-19", "쉼터명": "사우2통경로당", "유형": "특정계층이용시설-회원이용시설", "운영시간": "13:00 ~ 17:00 (월-일)", "대상": "특정인 이용가능" }, "geometry": { "type": "Point", "coordinates": [ 126.726540844555899, 37.614548693135831 ] } },
{ "type": "Feature", "properties": { "주소": "경기도 김포시 사우로 59-30", "쉼터명": "3통경로당", "유형": "특정계층이용시설-회원이용시설", "운영시간": "13:00 ~ 17:00 (월-일)", "대상": "특정인 이용가능" }, "geometry": { "type": "Point", "coordinates": [ 126.728574109835051, 37.621326593907256 ] } },
{ "type": "Feature", "properties": { "주소": "경기도 김포시 사우중로74번길 66", "쉼터명": "사우대우아파트경로당", "유형": "특정계층이용시설-회원이용시설", "운영시간": "13:00 ~ 17:00 (월-일)", "대상": "특정인 이용가능" }, "geometry": { "type": "Point", "coordinates": [ 126.723049756145457, 37.622887412884168 ] } },
{ "type": "Feature", "properties": { "주소": "경기도 김포시 돌문로15번길 45", "쉼터명": "사우한신아파트경로당", "유형": "특정계층이용시설-회원이용시설", "운영시간": "13:00 ~ 17:00 (월-일)", "대상": "특정인 이용가능" }, "geometry": { "type": "Point", "coordinates": [ 126.720504253214855, 37.616277363136234 ] } },
{ "type": "Feature", "properties": { "주소": "경기도 김포시 봉화로 13-17", "쉼터명": "사우8통경로당", "유형": "특정계층이용시설-회원이용시설", "운영시간": "13:00 ~ 17:00 (월-일)", "대상": "특정인 이용가능" }, "geometry": { "type": "Point", "coordinates": [ 126.71579069007187, 37.617532770032525 ] } },
{ "type": "Feature", "properties": { "주소": "경기도 김포시 사우중로74번길 12", "쉼터명": "동양신명경로당", "유형": "특정계층이용시설-회원이용시설", "운영시간": "13:00 ~ 17:00 (월-일)", "대상": "특정인 이용가능" }, "geometry": { "type": "Point", "coordinates": [ 126.721835570369421, 37.620906943578198 ] } },
{ "type": "Feature", "properties": { "주소": "경기도 김포시 봉화로 59-17", "쉼터명": "농장마을신안아파트경로당", "유형": "특정계층이용시설-회원이용시설", "운영시간": "13:00 ~ 17:00 (월-일)", "대상": "특정인 이용가능" }, "geometry": { "type": "Point", "coordinates": [ 126.710982944641529, 37.619615918003483 ] } },
{ "type": "Feature", "properties": { "주소": "경기도 김포시 돌문로 51", "쉼터명": "사우동행정복지센터", "유형": "공공시설-공공청사", "운영시간": "09:00 ~ 18:00 (월-금)", "대상": "누구나 이용가능" }, "geometry": { "type": "Point", "coordinates": [ 126.716747380341758, 37.619305946564623 ] } },
{ "type": "Feature", "properties": { "주소": "경기도 김포시 풍무로 35", "쉼터명": "현대아파트경로당", "유형": "특정계층이용시설-회원이용시설", "운영시간": "09:00 ~ 17:00 (월-일)", "대상": "특정인 이용가능" }, "geometry": { "type": "Point", "coordinates": [ 126.718720130925661, 37.598479591765262 ] } },
{ "type": "Feature", "properties": { "주소": "경기도 김포시 승가로 89", "쉼터명": "삼성아파트경로당", "유형": "특정계층이용시설-회원이용시설", "운영시간": "11:00 ~ 18:00 (월-일)", "대상": "특정인 이용가능" }, "geometry": { "type": "Point", "coordinates": [ 126.709269792833013, 37.606176790342843 ] } },
{ "type": "Feature", "properties": { "주소": "경기도 김포시 유현로 51", "쉼터명": "현대프라임빌경로당", "유형": "특정계층이용시설-회원이용시설", "운영시간": "12:00 ~ 17:00 (월-일)", "대상": "특정인 이용가능" }, "geometry": { "type": "Point", "coordinates": [ 126.729166063683422, 37.598714600139083 ] } },
{ "type": "Feature", "properties": { "주소": "경기도 김포시 풍무로96번길 42", "쉼터명": "자이아파트1단지경로당", "유형": "특정계층이용시설-회원이용시설", "운영시간": "10:00 ~ 17:00 (월-일)", "대상": "특정인 이용가능" }, "geometry": { "type": "Point", "coordinates": [ 126.724250420167607, 37.603750441052725 ] } },
{ "type": "Feature", "properties": { "주소": "경기도 김포시 풍무로96번길 100", "쉼터명": "자이아파트2단지경로당", "유형": "특정계층이용시설-회원이용시설", "운영시간": "10:00 ~ 17:00 (월-일)", "대상": "특정인 이용가능" }, "geometry": { "type": "Point", "coordinates": [ 126.728457502194487, 37.60321386392765 ] } },
{ "type": "Feature", "properties": { "주소": "경기도 김포시 풍무로68번길 41", "쉼터명": "한화유로메트로2단지경로당", "유형": "특정계층이용시설-회원이용시설", "운영시간": "11:00 ~ 17:00 (월-일)", "대상": "특정인 이용가능" }, "geometry": { "type": "Point", "coordinates": [ 126.726423848663543, 37.601867140297713 ] } },
{ "type": "Feature", "properties": { "주소": "경기도 김포시 풍무로68번길 78", "쉼터명": "꿈에그린더 포레듀 5단지 경로당", "유형": "특정계층이용시설-회원이용시설", "운영시간": "09:00 ~ 18:00 (월-일)", "대상": "특정인 이용가능" }, "geometry": { "type": "Point", "coordinates": [ 126.729947048817905, 37.600404310855716 ] } },
{ "type": "Feature", "properties": { "주소": "경기도 김포시 유현로 200", "쉼터명": "풍무푸르지오아파트경로당", "유형": "특정계층이용시설-회원이용시설", "운영시간": "12:00 ~ 18:00 (월-일)", "대상": "특정인 이용가능" }, "geometry": { "type": "Point", "coordinates": [ 126.733285139620619, 37.608503022837361 ] } },
{ "type": "Feature", "properties": { "주소": "경기도 김포시 유현로 215", "쉼터명": "풍무센트럴푸르지오아파트경로당", "유형": "특정계층이용시설-회원이용시설", "운영시간": "10:00 ~ 17:00 (월-일)", "대상": "특정인 이용가능" }, "geometry": { "type": "Point", "coordinates": [ 126.729032198724155, 37.609562738684602 ] } },
{ "type": "Feature", "properties": { "주소": "경기도 김포시 풍무로69번길 51", "쉼터명": "월드메르디앙경로당", "유형": "특정계층이용시설-회원이용시설", "운영시간": "09:00 ~ 17:00 (월-일)", "대상": "특정인 이용가능" }, "geometry": { "type": "Point", "coordinates": [ 126.717761595661358, 37.601399800967386 ] } },
{ "type": "Feature", "properties": { "주소": "경기도 김포시 풍무로 41-22", "쉼터명": "풍무5통경로당", "유형": "특정계층이용시설-회원이용시설", "운영시간": "12:00 ~ 17:00 (월-일)", "대상": "특정인 이용가능" }, "geometry": { "type": "Point", "coordinates": [ 126.719963559746134, 37.600370129292145 ] } },
{ "type": "Feature", "properties": { "주소": "경기도 김포시 풍무로 36", "쉼터명": "범양아파트경로당", "유형": "특정계층이용시설-회원이용시설", "운영시간": "13:00 ~ 17:00 (월-일)", "대상": "특정인 이용가능" }, "geometry": { "type": "Point", "coordinates": [ 126.722253890975892, 37.598982132528818 ] } },
{ "type": "Feature", "properties": { "주소": "경기도 김포시 풍무로131번길 10", "쉼터명": "수행경로당", "유형": "특정계층이용시설-회원이용시설", "운영시간": "09:00 ~ 17:00 (월-일)", "대상": "특정인 이용가능" }, "geometry": { "type": "Point", "coordinates": [ 126.722583654065431, 37.607818227687233 ] } },
{ "type": "Feature", "properties": { "주소": "경기도 김포시 풍무로 113", "쉼터명": "신안아파트경로당", "유형": "특정계층이용시설-회원이용시설", "운영시간": "10:00 ~ 18:00 (월-일)", "대상": "특정인 이용가능" }, "geometry": { "type": "Point", "coordinates": [ 126.721030136490157, 37.605417961058073 ] } },
{ "type": "Feature", "properties": { "주소": "경기도 김포시 장릉로 56", "쉼터명": "길훈1차경로당", "유형": "특정계층이용시설-회원이용시설", "운영시간": "13:00 ~ 17:00 (월-일)", "대상": "특정인 이용가능" }, "geometry": { "type": "Point", "coordinates": [ 126.719626139690931, 37.612985251693665 ] } },
{ "type": "Feature", "properties": { "주소": "경기도 김포시 풍무로93번길 30", "쉼터명": "대림아파트경로당", "유형": "특정계층이용시설-회원이용시설", "운영시간": "09:00 ~ 17:00 (월-일)", "대상": "특정인 이용가능" }, "geometry": { "type": "Point", "coordinates": [ 126.720439155787886, 37.604735500709083 ] } },
{ "type": "Feature", "properties": { "주소": "경기도 김포시 풍무로 96", "쉼터명": "삼용아파트경로당", "유형": "특정계층이용시설-회원이용시설", "운영시간": "11:00 ~ 17:00 (월-일)", "대상": "특정인 이용가능" }, "geometry": { "type": "Point", "coordinates": [ 126.722430976275959, 37.604068918699951 ] } },
{ "type": "Feature", "properties": { "주소": "경기도 김포시 풍무로146번길 101", "쉼터명": "풍무도서관", "유형": "공공시설-복지·문화·체육시설", "운영시간": "09:00 ~ 22:00 (화-금)", "대상": "누구나 이용가능" }, "geometry": { "type": "Point", "coordinates": [ 126.729148992684856, 37.607616211236163 ] } },
{ "type": "Feature", "properties": { "주소": "경기도 김포시 풍무로 74", "쉼터명": "풍무동행정복지센터", "유형": "공공시설-공공청사", "운영시간": "09:00 ~ 18:00 (월-금)", "대상": "누구나 이용가능" }, "geometry": { "type": "Point", "coordinates": [ 126.722035189480863, 37.602151103935611 ] } },
{ "type": "Feature", "properties": { "주소": "경기도 김포시 김포한강2로 112", "쉼터명": "장기동행정복지센터", "유형": "공공시설-공공청사", "운영시간": "09:00 ~ 18:00 (월-금)", "대상": "누구나 이용가능" }, "geometry": { "type": "Point", "coordinates": [ 126.671337825349866, 37.639730678093159 ] } },
{ "type": "Feature", "properties": { "주소": "경기도 김포시 김포한강2로 42", "쉼터명": "장기도서관", "유형": "공공시설-복지·문화·체육시설", "운영시간": "09:00 ~ 22:00 (월-목)", "대상": "누구나 이용가능" }, "geometry": { "type": "Point", "coordinates": [ 126.67654171045281, 37.641795740680216 ] } },
{ "type": "Feature", "properties": { "주소": "경기도 김포시 옹주물로 91-12", "쉼터명": "외옹경로당", "유형": "특정계층이용시설-회원이용시설", "운영시간": "13:00 ~ 17:00 (월-일)", "대상": "특정인 이용가능" }, "geometry": { "type": "Point", "coordinates": [ 126.684566064543631, 37.632051597454584 ] } },
{ "type": "Feature", "properties": { "주소": "경기도 김포시 옹주물로 21", "쉼터명": "장기경로당", "유형": "특정계층이용시설-회원이용시설", "운영시간": "10:00 ~ 17:00 (월-일)", "대상": "특정인 이용가능" }, "geometry": { "type": "Point", "coordinates": [ 126.688159987116805, 37.637101997727804 ] } },
{ "type": "Feature", "properties": { "주소": "경기도 김포시 김포한강2로 144", "쉼터명": "초당마을주공아파트경로당", "유형": "특정계층이용시설-회원이용시설", "운영시간": "10:00 ~ 18:00 (월-일)", "대상": "특정인 이용가능" }, "geometry": { "type": "Point", "coordinates": [ 126.668452572215855, 37.641910435444736 ] } },
{ "type": "Feature", "properties": { "주소": "경기도 김포시 김포한강9로115번길 25", "쉼터명": "구래동행정복지센터", "유형": "공공시설-공공청사", "운영시간": "09:00 ~ 18:00 (월-금)", "대상": "누구나 이용가능" }, "geometry": { "type": "Point", "coordinates": [ 126.623680606539807, 37.646490682735362 ] } },
{ "type": "Feature", "properties": { "주소": "경기도 김포시 김포한강5로 417", "쉼터명": "한가람우미린아파트경로당", "유형": "특정계층이용시설-회원이용시설", "운영시간": "11:00 ~ 17:00 (월-일)", "대상": "특정인 이용가능" }, "geometry": { "type": "Point", "coordinates": [ 126.625243436118382, 37.648848067565396 ] } },
{ "type": "Feature", "properties": { "주소": "경기도 김포시 솔터로 22", "쉼터명": "메트로타워예미지경로당", "유형": "특정계층이용시설-회원이용시설", "운영시간": "13:00 ~ 17:00 (월-일)", "대상": "특정인 이용가능" }, "geometry": { "type": "Point", "coordinates": [ 126.630426619550491, 37.64553770324828 ] } },
{ "type": "Feature", "properties": { "주소": "경기도 김포시 김포한강8로 409", "쉼터명": "한강신도시3차푸르지오아파트경로당", "유형": "특정계층이용시설-회원이용시설", "운영시간": "13:00 ~ 17:00 (월-일)", "대상": "특정인 이용가능" }, "geometry": { "type": "Point", "coordinates": [ 126.623075376625522, 37.642040945759071 ] } },
{ "type": "Feature", "properties": { "주소": "경기도 김포시 김포한강4로420번길 163", "쉼터명": "LH호수마을5단지경로당", "유형": "특정계층이용시설-회원이용시설", "운영시간": "11:00 ~ 17:00 (월-일)", "대상": "특정인 이용가능" }, "geometry": { "type": "Point", "coordinates": [ 126.63247590140989, 37.648724750670929 ] } },
{ "type": "Feature", "properties": { "주소": "경기도 김포시 김포한강4로 487", "쉼터명": "반도유보라4차경로당", "유형": "특정계층이용시설-회원이용시설", "운영시간": "11:00 ~ 17:00 (월-일)", "대상": "특정인 이용가능" }, "geometry": { "type": "Point", "coordinates": [ 126.629587106501717, 37.646399624663999 ] } },
{ "type": "Feature", "properties": { "주소": "경기도 김포시 김포한강9로 116", "쉼터명": "반도유보라5차경로당", "유형": "특정계층이용시설-회원이용시설", "운영시간": "13:00 ~ 17:00 (월-일)", "대상": "특정인 이용가능" }, "geometry": { "type": "Point", "coordinates": [ 126.625909033628119, 37.647467554898363 ] } },
{ "type": "Feature", "properties": { "주소": "경기도 김포시 김포한강9로 11", "쉼터명": "김포한강예미지아파트경로당", "유형": "특정계층이용시설-회원이용시설", "운영시간": "13:00 ~ 17:00 (월-일)", "대상": "특정인 이용가능" }, "geometry": { "type": "Point", "coordinates": [ 126.622933374090536, 37.637967396071666 ] } },
{ "type": "Feature", "properties": { "주소": "경기도 김포시 김포한강4로 564", "쉼터명": "김포한강한가람LH2단지경로당", "유형": "특정계층이용시설-회원이용시설", "운영시간": "11:00 ~ 17:00 (월-일)", "대상": "특정인 이용가능" }, "geometry": { "type": "Point", "coordinates": [ 126.621523877178788, 37.646283324634808 ] } },
{ "type": "Feature", "properties": { "주소": "경기도 김포시 김포한강10로134번길 77", "쉼터명": "김포한강나비마을3단지경로당", "유형": "특정계층이용시설-회원이용시설", "운영시간": "13:00 ~ 17:00 (월-일)", "대상": "특정인 이용가능" }, "geometry": { "type": "Point", "coordinates": [ 126.624653030954718, 37.642516996016191 ] } },
{ "type": "Feature", "properties": { "주소": "경기도 김포시 김포한강5로 385", "쉼터명": "자연앤e편한세상경로당", "유형": "특정계층이용시설-회원이용시설", "운영시간": "11:00 ~ 17:00 (월-일)", "대상": "특정인 이용가능" }, "geometry": { "type": "Point", "coordinates": [ 126.628496045357224, 37.648857647749928 ] } },
{ "type": "Feature", "properties": { "주소": "경기도 김포시 김포한강4로 471", "쉼터명": "호반베르디움더레이크2차아파트경로당", "유형": "특정계층이용시설-회원이용시설", "운영시간": "11:00 ~ 17:00 (월-일)", "대상": "특정인 이용가능" }, "geometry": { "type": "Point", "coordinates": [ 126.63298621156035, 37.647273035663346 ] } },
{ "type": "Feature", "properties": { "주소": "경기도 김포시 김포한강4로420번길 100", "쉼터명": "구래동김포한강아이파크경로당", "유형": "특정계층이용시설-회원이용시설", "운영시간": "11:00 ~ 17:00 (월-일)", "대상": "특정인 이용가능" }, "geometry": { "type": "Point", "coordinates": [ 126.630957777418729, 37.651427940731082 ] } },
{ "type": "Feature", "properties": { "주소": "경기도 김포시 김포한강8로 365", "쉼터명": "구래역화성파크드림경로당", "유형": "특정계층이용시설-회원이용시설", "운영시간": "13:00 ~ 17:00 (월-일)", "대상": "특정인 이용가능" }, "geometry": { "type": "Point", "coordinates": [ 126.629058067648387, 37.641664441032226 ] } },
{ "type": "Feature", "properties": { "주소": "경기도 김포시 김포한강9로115번길 37", "쉼터명": "김포한강데세리브경로당", "유형": "특정계층이용시설-회원이용시설", "운영시간": "13:00 ~ 17:00 (월-일)", "대상": "특정인 이용가능" }, "geometry": { "type": "Point", "coordinates": [ 126.622703877509224, 37.646055250556223 ] } },
{ "type": "Feature", "properties": { "주소": "경기도 김포시 김포한강4로420번길 164", "쉼터명": "자연앤e편한세상3단지아파트경로당", "유형": "특정계층이용시설-회원이용시설", "운영시간": "11:00 ~ 17:00 (월-일)", "대상": "특정인 이용가능" }, "geometry": { "type": "Point", "coordinates": [ 126.628942846485572, 37.647377481416186 ] } },
{ "type": "Feature", "properties": { "주소": "경기도 김포시 김포한강8로 377", "쉼터명": "나비마을리슈빌아파트경로당", "유형": "특정계층이용시설-회원이용시설", "운영시간": "13:00 ~ 17:00 (월-일)", "대상": "특정인 이용가능" }, "geometry": { "type": "Point", "coordinates": [ 126.627707114721687, 37.641499862666649 ] } },
{ "type": "Feature", "properties": { "주소": "경기도 김포시 김포한강8로 331", "쉼터명": "솔터마을2단지경로당", "유형": "특정계층이용시설-회원이용시설", "운영시간": "13:00 ~ 17:00 (월-일)", "대상": "특정인 이용가능" }, "geometry": { "type": "Point", "coordinates": [ 126.632861933457633, 37.643591927417781 ] } },
{ "type": "Feature", "properties": { "주소": "경기도 김포시 김포한강8로 333", "쉼터명": "솔터마을3단지경로당", "유형": "특정계층이용시설-회원이용시설", "운영시간": "13:00 ~ 17:00 (월-일)", "대상": "특정인 이용가능" }, "geometry": { "type": "Point", "coordinates": [ 126.631698227607146, 37.643334077762198 ] } },
{ "type": "Feature", "properties": { "주소": "경기도 김포시 김포한강7로22번길 174-6", "쉼터명": "마산도서관", "유형": "공공시설-복지·문화·체육시설", "운영시간": "09:00 ~ 22:00 (화-금)", "대상": "누구나 이용가능" }, "geometry": { "type": "Point", "coordinates": [ 126.639744867233716, 37.642424985220885 ] } },
{ "type": "Feature", "properties": { "주소": "경기도 김포시 김포한강8로 246", "쉼터명": "마산동행정복지센터", "유형": "공공시설-공공청사", "운영시간": "09:00 ~ 18:00 (월-금)", "대상": "누구나 이용가능" }, "geometry": { "type": "Point", "coordinates": [ 126.64128536762108, 37.643649117616761 ] } },
{ "type": "Feature", "properties": { "주소": "경기도 김포시 전원로38번길 86", "쉼터명": "전원마을3단지경로당", "유형": "특정계층이용시설-회원이용시설", "운영시간": "13:00 ~ 17:00 (월-일)", "대상": "특정인 이용가능" }, "geometry": { "type": "Point", "coordinates": [ 126.688039982145682, 37.644868552795458 ] } },
{ "type": "Feature", "properties": { "주소": "경기도 김포시 모담공원로 32", "쉼터명": "운양동행정복지센터", "유형": "공공시설-공공청사", "운영시간": "09:00 ~ 18:00 (월-금)", "대상": "누구나 이용가능" }, "geometry": { "type": "Point", "coordinates": [ 126.68324999261776, 37.651436522764975 ] } },
{ "type": "Feature", "properties": { "주소": "경기도 김포시 김포대로1518번길 30", "쉼터명": "발산마을회관", "유형": "공공시설-복지·문화·체육시설", "운영시간": "13:00 ~ 17:00 (월-일)", "대상": "누구나 이용가능" }, "geometry": { "type": "Point", "coordinates": [ 126.667620180097515, 37.660215655317785 ] } },
{ "type": "Feature", "properties": { "주소": "경기도 김포시 모담공원로 118", "쉼터명": "모담도서관", "유형": "공공시설-복지·문화·체육시설", "운영시간": "09:00 ~ 22:00 (화-금)", "대상": "누구나 이용가능" }, "geometry": { "type": "Point", "coordinates": [ 126.691992310647038, 37.649818417751398 ] } },
{ "type": "Feature", "properties": { "주소": "경기도 김포시 운양로 174", "쉼터명": "성창아파트경로당", "유형": "특정계층이용시설-회원이용시설", "운영시간": "13:00 ~ 17:00 (월-일)", "대상": "특정인 이용가능" }, "geometry": { "type": "Point", "coordinates": [ 126.673963011593756, 37.655039860968188 ] } },
{ "type": "Feature", "properties": { "주소": "경기도 김포시 운양로63번길 2", "쉼터명": "대촌경로당", "유형": "특정계층이용시설-회원이용시설", "운영시간": "13:00 ~ 17:00 (월-일)", "대상": "특정인 이용가능" }, "geometry": { "type": "Point", "coordinates": [ 126.673229997181011, 37.660957856143376 ] } },
{ "type": "Feature", "properties": { "주소": "경기도 김포시 운양로 88-4", "쉼터명": "제촌경로당", "유형": "특정계층이용시설-회원이용시설", "운영시간": "13:00 ~ 17:00 (월-일)", "대상": "특정인 이용가능" }, "geometry": { "type": "Point", "coordinates": [ 126.675554189286316, 37.659531540725361 ] } },
{ "type": "Feature", "properties": { "주소": "경기도 김포시 김포한강11로 158", "쉼터명": "전원마을4단지경로당", "유형": "특정계층이용시설-회원이용시설", "운영시간": "13:00 ~ 17:00 (월-일)", "대상": "특정인 이용가능" }, "geometry": { "type": "Point", "coordinates": [ 126.680114638958344, 37.647410762032521 ] } },
{ "type": "Feature", "properties": { "주소": "경기도 김포시 전원로 24", "쉼터명": "전원마을1단지경로당", "유형": "특정계층이용시설-회원이용시설", "운영시간": "13:00 ~ 17:00 (월-일)", "대상": "특정인 이용가능" }, "geometry": { "type": "Point", "coordinates": [ 126.682688102332662, 37.64604113634995 ] } },
{ "type": "Feature", "properties": { "주소": "경기도 김포시 전원로 44", "쉼터명": "전원마을2단지경로당", "유형": "특정계층이용시설-회원이용시설", "운영시간": "13:00 ~ 17:00 (월-일)", "대상": "특정인 이용가능" }, "geometry": { "type": "Point", "coordinates": [ 126.685409826173881, 37.647773017512904 ] } }
]
}
