{
"type": "FeatureCollection",
"name": "cool",
"crs": { "type": "name", "properties": { "name": "urn:ogc:def:crs:OGC:1.3:CRS84" } },
"features": [
{ "type": "Feature", "properties": { "field1": "경기도 김포시 통진읍 김포대로 2093-20", "field2": "도사6리경로당", "field3": "특정계층이용시설-회원이용시설", "field4": "13:00 ~ 17:00 (월-일)", "field5": null, "field6": "특정인 이용가능", "_GC_TYPE": "정", "_CLEANADDR": "경기도 김포시 김포대로 2093-20 (통진읍)", "_PNU": 4157025021106970006, "_X": 126.61175693220534, "_Y": 37.683383444946763 }, "geometry": { "type": "Point", "coordinates": [ 126.611756932205338, 37.683383444946763 ] } },
{ "type": "Feature", "properties": { "field1": "경기도 김포시 통진읍 조강로 132", "field2": "통진도서관", "field3": "공공시설-복지·문화·체육시설", "field4": "09:00 ~ 22:00 (월", "field5": null, "field6": "누구나 이용가능", "_GC_TYPE": "정", "_CLEANADDR": "경기도 김포시 조강로 132 (통진읍)", "_PNU": 4157025023108400006, "_X": 126.5920405252171, "_Y": 37.693977721784556 }, "geometry": { "type": "Point", "coordinates": [ 126.592040525217101, 37.693977721784556 ] } },
{ "type": "Feature", "properties": { "field1": "경기도 김포시 통진읍 소서명로 31", "field2": "서암2리경로당", "field3": "특정계층이용시설-회원이용시설", "field4": "09:00 ~ 17:00 (월-일)", "field5": null, "field6": "특정인 이용가능", "_GC_TYPE": "정", "_CLEANADDR": "경기도 김포시 소서명로 31 (통진읍)", "_PNU": 4157025023104160006, "_X": 126.60512975158163, "_Y": 37.699021145083009 }, "geometry": { "type": "Point", "coordinates": [ 126.605129751581629, 37.699021145083009 ] } },
{ "type": "Feature", "properties": { "field1": "경기도 김포시 통진읍 김포대로1938번길 60", "field2": "수참2리경로당", "field3": "특정계층이용시설-회원이용시설", "field4": "13:00 ~ 17:00 (월-일)", "field5": null, "field6": "특정인 이용가능", "_GC_TYPE": "정", "_CLEANADDR": "경기도 김포시 김포대로1938번길 60 (통진읍)", "_PNU": 4157025024105090003, "_X": 126.63023048354086, "_Y": 37.680044076069343 }, "geometry": { "type": "Point", "coordinates": [ 126.630230483540856, 37.680044076069343 ] } },
{ "type": "Feature", "properties": { "field1": "경기도 김포시 통진읍 하성로102번길 20-1", "field2": "수참1리경로당", "field3": "특정계층이용시설-회원이용시설", "field4": "13:00 ~ 17:00 (월-일)", "field5": null, "field6": "특정인 이용가능", "_GC_TYPE": "정", "_CLEANADDR": "경기도 김포시 하성로102번길 20-1 (통진읍)", "_PNU": 4157025024101950011, "_X": 126.63277764231543, "_Y": 37.683830203627245 }, "geometry": { "type": "Point", "coordinates": [ 126.632777642315432, 37.683830203627245 ] } },
{ "type": "Feature", "properties": { "field1": "경기도 김포시 통진읍 마송1로16번길 18-41", "field2": "가현5리경로당", "field3": "특정계층이용시설-회원이용시설", "field4": "09:00 ~ 17:00 (월-일)", "field5": null, "field6": "특정인 이용가능", "_GC_TYPE": "정", "_CLEANADDR": "경기도 김포시 마송1로16번길 18-41 (통진읍)", "_PNU": 4157025025100400041, "_X": 126.6065189559661, "_Y": 37.68223911110843 }, "geometry": { "type": "Point", "coordinates": [ 126.606518955966095, 37.68223911110843 ] } },
{ "type": "Feature", "properties": { "field1": "경기도 김포시 통진읍 가현로105번길 54", "field2": "가현4리경로당", "field3": "특정계층이용시설-회원이용시설", "field4": "13:00 ~ 17:00 (월-일)", "field5": null, "field6": "특정인 이용가능", "_GC_TYPE": "정", "_CLEANADDR": "경기도 김포시 가현로105번길 54 (통진읍)", "_PNU": 4157025025106900003, "_X": 126.58325654604535, "_Y": 37.67398383361828 }, "geometry": { "type": "Point", "coordinates": [ 126.583256546045348, 37.67398383361828 ] } },
{ "type": "Feature", "properties": { "field1": "경기도 김포시 통진읍 가현로 240", "field2": "가현2리경로당", "field3": "특정계층이용시설-회원이용시설", "field4": "09:00 ~ 17:00 (월-일)", "field5": null, "field6": "특정인 이용가능", "_GC_TYPE": "정", "_CLEANADDR": "경기도 김포시 가현로 240 (통진읍)", "_PNU": 4157025025102880001, "_X": 126.59510364838339, "_Y": 37.681868155366097 }, "geometry": { "type": "Point", "coordinates": [ 126.595103648383386, 37.681868155366097 ] } },
{ "type": "Feature", "properties": { "field1": "경기도 김포시 통진읍 동을산로133번길 36", "field2": "동을산리경로당", "field3": "특정계층이용시설-회원이용시설", "field4": "13:00 ~ 17:00 (월-일)", "field5": null, "field6": "특정인 이용가능", "_GC_TYPE": "정", "_CLEANADDR": "경기도 김포시 동을산로133번길 36 (통진읍)", "_PNU": 4157025026100400001, "_X": 126.62338751700959, "_Y": 37.702001777299238 }, "geometry": { "type": "Point", "coordinates": [ 126.62338751700959, 37.702001777299238 ] } },
{ "type": "Feature", "properties": { "field1": "경기도 김포시 통진읍 동을산로 130", "field2": "동을산2리경로당", "field3": "특정계층이용시설-회원이용시설", "field4": "09:00 ~ 17:00 (월-일)", "field5": null, "field6": "특정인 이용가능", "_GC_TYPE": "정", "_CLEANADDR": "경기도 김포시 동을산로 130 (통진읍)", "_PNU": 4157025026104140005, "_X": 126.62329669334643, "_Y": 37.700133848088313 }, "geometry": { "type": "Point", "coordinates": [ 126.623296693346433, 37.700133848088313 ] } },
{ "type": "Feature", "properties": { "field1": "경기도 김포시 통진읍 월하로 515", "field2": "귀전2리경로당", "field3": "특정계층이용시설-회원이용시설", "field4": "13:00 ~ 17:00 (월-일)", "field5": null, "field6": "특정인 이용가능", "_GC_TYPE": "정", "_CLEANADDR": "경기도 김포시 월하로 515 (통진읍)", "_PNU": 4157025027105220004, "_X": 126.61300212002082, "_Y": 37.712363157045331 }, "geometry": { "type": "Point", "coordinates": [ 126.613002120020823, 37.712363157045331 ] } },
{ "type": "Feature", "properties": { "field1": "경기도 김포시 통진읍 귀전로 116", "field2": "귀전1리경로당", "field3": "특정계층이용시설-회원이용시설", "field4": "13:00 ~ 17:00 (월-일)", "field5": null, "field6": "특정인 이용가능", "_GC_TYPE": "정", "_CLEANADDR": "경기도 김포시 귀전로 116 (통진읍)", "_PNU": 4157025027102780001, "_X": 126.6109347524345, "_Y": 37.720205195521274 }, "geometry": { "type": "Point", "coordinates": [ 126.610934752434503, 37.720205195521274 ] } },
{ "type": "Feature", "properties": { "field1": "경기도 김포시 통진읍 고정로218번길 43", "field2": "고정1리경로당", "field3": "특정계층이용시설-회원이용시설", "field4": "13:00 ~ 17:00 (월-일)", "field5": null, "field6": "특정인 이용가능", "_GC_TYPE": "정", "_CLEANADDR": "경기도 김포시 고정로218번길 43 (통진읍)", "_PNU": 4157025028103010001, "_X": 126.59197731714674, "_Y": 37.721738884838203 }, "geometry": { "type": "Point", "coordinates": [ 126.591977317146743, 37.721738884838203 ] } },
{ "type": "Feature", "properties": { "field1": "경기도 김포시 통진읍 고정1로82번길 20-13", "field2": "고정3리경로당", "field3": "특정계층이용시설-회원이용시설", "field4": "13:00 ~ 17:00 (월-일)", "field5": null, "field6": "특정인 이용가능", "_GC_TYPE": "정", "_CLEANADDR": "경기도 김포시 고정1로82번길 20-13 (통진읍)", "_PNU": 4157025028101030001, "_X": 126.59843628106847, "_Y": 37.718991295156805 }, "geometry": { "type": "Point", "coordinates": [ 126.598436281068473, 37.718991295156805 ] } },
{ "type": "Feature", "properties": { "field1": "경기도 김포시 통진읍 월하로301번길 222", "field2": "고정2리경로당", "field3": "특정계층이용시설-회원이용시설", "field4": "13:00 ~ 17:00 (월-일)", "field5": null, "field6": "특정인 이용가능", "_GC_TYPE": "정", "_CLEANADDR": "경기도 김포시 월하로301번길 222 (통진읍)", "_PNU": 4157025028104410003, "_X": 126.59411424553049, "_Y": 37.713905407940437 }, "geometry": { "type": "Point", "coordinates": [ 126.594114245530491, 37.713905407940437 ] } },
{ "type": "Feature", "properties": { "field1": "경기도 김포시 통진읍 옹달샘로 68", "field2": "옹정3리경로당", "field3": "특정계층이용시설-회원이용시설", "field4": "09:00 ~ 17:00 (월-일)", "field5": null, "field6": "특정인 이용가능", "_GC_TYPE": "정", "_CLEANADDR": "경기도 김포시 옹달샘로 68 (통진읍)", "_PNU": 4157025029101080002, "_X": 126.57158620565077, "_Y": 37.697342611616222 }, "geometry": { "type": "Point", "coordinates": [ 126.571586205650775, 37.697342611616222 ] } },
{ "type": "Feature", "properties": { "field1": "경기도 김포시 통진읍 옹정로 146", "field2": "옹정2리경로당", "field3": "특정계층이용시설-회원이용시설", "field4": "13:00 ~ 17:00 (월-일)", "field5": null, "field6": "특정인 이용가능", "_GC_TYPE": "정", "_CLEANADDR": "경기도 김포시 옹정로 146 (통진읍)", "_PNU": 4157025029101730003, "_X": 126.56828776051486, "_Y": 37.692045698892471 }, "geometry": { "type": "Point", "coordinates": [ 126.568287760514863, 37.692045698892471 ] } },
{ "type": "Feature", "properties": { "field1": "경기도 김포시 통진읍 소서명로 67", "field2": "서암1리경로당", "field3": "특정계층이용시설-회원이용시설", "field4": "13:00 ~ 17:00 (월-일)", "field5": null, "field6": "특정인 이용가능", "_GC_TYPE": "정", "_CLEANADDR": "경기도 김포시 소서명로 67 (통진읍)", "_PNU": 4157025023103860001, "_X": 126.60649557847414, "_Y": 37.701917120837891 }, "geometry": { "type": "Point", "coordinates": [ 126.606495578474139, 37.701917120837891 ] } },
{ "type": "Feature", "properties": { "field1": "경기도 김포시 통진읍 조강로56번길 51-9", "field2": "통진경로당", "field3": "특정계층이용시설-회원이용시설", "field4": "13:00 ~ 17:00 (월-일)", "field5": null, "field6": "특정인 이용가능", "_GC_TYPE": "정", "_CLEANADDR": "경기도 김포시 조강로56번길 51-9 (통진읍)", "_PNU": 4157025023107310001, "_X": 126.60097934569053, "_Y": 37.692787198029606 }, "geometry": { "type": "Point", "coordinates": [ 126.600979345690533, 37.692787198029606 ] } },
{ "type": "Feature", "properties": { "field1": "경기도 김포시 통진읍 도이곶로37번길 19", "field2": "도사2리경로당", "field3": "특정계층이용시설-회원이용시설", "field4": "09:00 ~ 17:00 (월-일)", "field5": null, "field6": "특정인 이용가능", "_GC_TYPE": "정", "_CLEANADDR": "경기도 김포시 도이곶로37번길 19 (통진읍)", "_PNU": 4157025021101490000, "_X": 126.61424197418134, "_Y": 37.687868852330695 }, "geometry": { "type": "Point", "coordinates": [ 126.61424197418134, 37.687868852330695 ] } },
{ "type": "Feature", "properties": { "field1": "경기도 김포시 통진읍 김포대로2004번길 89", "field2": "도사4리경로당", "field3": "특정계층이용시설-회원이용시설", "field4": "13:00 ~ 17:00 (월-일)", "field5": null, "field6": "특정인 이용가능", "_GC_TYPE": "정", "_CLEANADDR": "경기도 김포시 김포대로2004번길 89 (통진읍)", "_PNU": 4157025021105390002, "_X": 126.61781829073337, "_Y": 37.684524693938272 }, "geometry": { "type": "Point", "coordinates": [ 126.617818290733368, 37.684524693938272 ] } },
{ "type": "Feature", "properties": { "field1": "경기도 김포시 통진읍 김포대로 1991", "field2": "도사7리신일아파트경로당", "field3": "특정계층이용시설-회원이용시설", "field4": "13:00 ~ 17:00 (월-일)", "field5": null, "field6": "특정인 이용가능", "_GC_TYPE": "정", "_CLEANADDR": "경기도 김포시 김포대로 1991 (통진읍)", "_PNU": 4157025021109720000, "_X": 126.62154412179429, "_Y": 37.679593841541319 }, "geometry": { "type": "Point", "coordinates": [ 126.621544121794287, 37.679593841541319 ] } },
{ "type": "Feature", "properties": { "field1": "경기도 김포시 통진읍 흥신로254번길 10-52", "field2": "도사3리경로당", "field3": "특정계층이용시설-회원이용시설", "field4": "13:00 ~ 17:00 (월-일)", "field5": null, "field6": "특정인 이용가능", "_GC_TYPE": "정", "_CLEANADDR": "경기도 김포시 흥신로254번길 10-52 (통진읍)", "_PNU": 4157025021107790004, "_X": 126.61362404999258, "_Y": 37.680332758354098 }, "geometry": { "type": "Point", "coordinates": [ 126.61362404999258, 37.680332758354098 ] } },
{ "type": "Feature", "properties": { "field1": "경기도 김포시 통진읍 율마로450번길 73-26", "field2": "도사1리경로당", "field3": "특정계층이용시설-회원이용시설", "field4": "13:00 ~ 17:00 (월-일)", "field5": null, "field6": "특정인 이용가능", "_GC_TYPE": "정", "_CLEANADDR": "경기도 김포시 율마로450번길 73-26 (통진읍)", "_PNU": 4157025021102900000, "_X": 126.60837522896989, "_Y": 37.689354660101415 }, "geometry": { "type": "Point", "coordinates": [ 126.608375228969891, 37.689354660101415 ] } },
{ "type": "Feature", "properties": { "field1": "경기도 김포시 통진읍 김포대로1961번길 22-1", "field2": "도사5리경로당", "field3": "특정계층이용시설-회원이용시설", "field4": "13:00 ~ 17:00 (월-일)", "field5": null, "field6": "특정인 이용가능", "_GC_TYPE": "정", "_CLEANADDR": "경기도 김포시 김포대로1961번길 22-1 (통진읍)", "_PNU": 4157025021108540006, "_X": 126.62411685009583, "_Y": 37.67934604856984 }, "geometry": { "type": "Point", "coordinates": [ 126.624116850095831, 37.67934604856984 ] } },
{ "type": "Feature", "properties": { "field1": "경기도 김포시 통진읍 마송1로 9", "field2": "마송LH3단지아파트경로당", "field3": "특정계층이용시설-회원이용시설", "field4": "13:00 ~ 17:00 (월-일)", "field5": null, "field6": "특정인 이용가능", "_GC_TYPE": "정", "_CLEANADDR": "경기도 김포시 마송1로 9 (통진읍)", "_PNU": 4157025022105460000, "_X": 126.60474441300893, "_Y": 37.6843052627069 }, "geometry": { "type": "Point", "coordinates": [ 126.60474441300893, 37.6843052627069 ] } },
{ "type": "Feature", "properties": { "field1": "경기도 김포시 통진읍 마송1로 77", "field2": "통진읍행정복지센터", "field3": "공공시설-공공청사", "field4": "09:00 ~ 18:00 (월-금)", "field5": null, "field6": "누구나 이용가능", "_GC_TYPE": "정", "_CLEANADDR": "경기도 김포시 마송1로 77 (통진읍)", "_PNU": 4157025022105260000, "_X": 126.60062708102765, "_Y": 37.68644250887732 }, "geometry": { "type": "Point", "coordinates": [ 126.600627081027653, 37.68644250887732 ] } },
{ "type": "Feature", "properties": { "field1": "경기도 김포시 통진읍 율마로438번길 51", "field2": "김포마송LH5단지 경로당", "field3": "특정계층이용시설-회원이용시설", "field4": "13:00 ~ 17:00 (월-일)", "field5": null, "field6": "특정인 이용가능", "_GC_TYPE": "정", "_CLEANADDR": "경기도 김포시 율마로438번길 51 (통진읍)", "_PNU": 4157025022105790000, "_X": 126.60597545415219, "_Y": 37.688326868545872 }, "geometry": { "type": "Point", "coordinates": [ 126.605975454152187, 37.688326868545872 ] } },
{ "type": "Feature", "properties": { "field1": "경기도 김포시 통진읍 마송1로 122", "field2": "e편한세상로얄하임경로당", "field3": "특정계층이용시설-회원이용시설", "field4": "13:00 ~ 17:00 (월-일)", "field5": null, "field6": "특정인 이용가능", "_GC_TYPE": "정", "_CLEANADDR": "경기도 김포시 마송1로 122 (통진읍)", "_PNU": 4157025022105130000, "_X": 126.59683167722245, "_Y": 37.68941737052269 }, "geometry": { "type": "Point", "coordinates": [ 126.596831677222454, 37.68941737052269 ] } },
{ "type": "Feature", "properties": { "field1": "경기도 김포시 통진읍 김포대로2250번길 23-14", "field2": "소망마을경로당", "field3": "특정계층이용시설-회원이용시설", "field4": "09:00 ~ 18:00 (월-금)", "field5": null, "field6": "특정인 이용가능", "_GC_TYPE": "정", "_CLEANADDR": "경기도 김포시 김포대로2250번길 23-14 (통진읍)", "_PNU": 4157025022104930000, "_X": 126.59611054518724, "_Y": 37.691755237080102 }, "geometry": { "type": "Point", "coordinates": [ 126.596110545187244, 37.691755237080102 ] } },
{ "type": "Feature", "properties": { "field1": "경기도 김포시 통진읍 김포대로2270번길 29", "field2": "마송6리(현대1차아파트)경로당", "field3": "특정계층이용시설-회원이용시설", "field4": "13:00 ~ 17:00 (월-일)", "field5": null, "field6": "특정인 이용가능", "_GC_TYPE": "정", "_CLEANADDR": "경기도 김포시 김포대로2270번길 29 (통진읍)", "_PNU": 4157025022101340000, "_X": 126.59378840889471, "_Y": 37.69187145320852 }, "geometry": { "type": "Point", "coordinates": [ 126.59378840889471, 37.69187145320852 ] } },
{ "type": "Feature", "properties": { "field1": "경기도 김포시 통진읍 마송2로104번길 43", "field2": "마송2리경로당", "field3": "특정계층이용시설-회원이용시설", "field4": "09:00 ~ 17:00 (월-일)", "field5": null, "field6": "특정인 이용가능", "_GC_TYPE": "정", "_CLEANADDR": "경기도 김포시 마송2로104번길 43 (통진읍)", "_PNU": 4157025022103250006, "_X": 126.59141021028242, "_Y": 37.685124505620038 }, "geometry": { "type": "Point", "coordinates": [ 126.591410210282419, 37.685124505620038 ] } },
{ "type": "Feature", "properties": { "field1": "경기도 김포시 통진읍 김포대로 2282", "field2": "마송현대2차아파트경로당", "field3": "특정계층이용시설-회원이용시설", "field4": "13:00 ~ 17:00 (월-일)", "field5": null, "field6": "특정인 이용가능", "_GC_TYPE": "정", "_CLEANADDR": "경기도 김포시 김포대로 2282 (통진읍)", "_PNU": 4157025022101300000, "_X": 126.59279286760029, "_Y": 37.692179246074637 }, "geometry": { "type": "Point", "coordinates": [ 126.592792867600295, 37.692179246074637 ] } },
{ "type": "Feature", "properties": { "field1": "경기도 김포시 통진읍 마송1로 133", "field2": "마송4리경로당", "field3": "특정계층이용시설-회원이용시설", "field4": "11:00 ~ 18:00 (월-일)", "field5": null, "field6": "특정인 이용가능", "_GC_TYPE": "정", "_CLEANADDR": "경기도 김포시 마송1로 133 (통진읍)", "_PNU": 4157025022105120000, "_X": 126.59438053503057, "_Y": 37.688462537174161 }, "geometry": { "type": "Point", "coordinates": [ 126.594380535030567, 37.688462537174161 ] } },
{ "type": "Feature", "properties": { "field1": "경기도 김포시 통진읍 마송1로 134-25", "field2": "마송휴먼시아매수리마을10단지경로당", "field3": "특정계층이용시설-회원이용시설", "field4": "09:00 ~ 17:00 (월-일)", "field5": null, "field6": "특정인 이용가능", "_GC_TYPE": "정", "_CLEANADDR": "경기도 김포시 마송1로 134-25 (통진읍)", "_PNU": 4157025022104980000, "_X": 126.59221207314523, "_Y": 37.690100621678567 }, "geometry": { "type": "Point", "coordinates": [ 126.592212073145234, 37.690100621678567 ] } },
{ "type": "Feature", "properties": { "field1": "경기도 김포시 고촌읍 태리로190번길 79-4", "field2": "신촌경로당", "field3": "특정계층이용시설-회원이용시설", "field4": "13:00 ~ 17:00 (월-일)", "field5": null, "field6": "특정인 이용가능", "_GC_TYPE": "정", "_CLEANADDR": "경기도 김포시 태리로190번길 79-4 (고촌읍)", "_PNU": 4157025323101190002, "_X": 126.7514368867604, "_Y": 37.594185726853716 }, "geometry": { "type": "Point", "coordinates": [ 126.751436886760402, 37.594185726853716 ] } },
{ "type": "Feature", "properties": { "field1": "경기도 김포시 고촌읍 수기로 8", "field2": "한화경로당", "field3": "특정계층이용시설-회원이용시설", "field4": "13:00 ~ 17:00 (월-일)", "field5": null, "field6": "특정인 이용가능", "_GC_TYPE": "정", "_CLEANADDR": "경기도 김포시 수기로 8 (고촌읍)", "_PNU": 4157025324110580000, "_X": 126.76487078120321, "_Y": 37.60239398538863 }, "geometry": { "type": "Point", "coordinates": [ 126.764870781203214, 37.60239398538863 ] } },
{ "type": "Feature", "properties": { "field1": "경기도 김포시 고촌읍 태리로 236", "field2": "캐슬앤파밀리에시티1단지경로당", "field3": "특정계층이용시설-회원이용시설", "field4": "13:00 ~ 17:00 (월-일)", "field5": null, "field6": "특정인 이용가능", "_GC_TYPE": "정", "_CLEANADDR": "경기도 김포시 태리로 236 (고촌읍)", "_PNU": 4157025324109230002, "_X": 126.7574873419286, "_Y": 37.593060858083007 }, "geometry": { "type": "Point", "coordinates": [ 126.757487341928595, 37.593060858083007 ] } },
{ "type": "Feature", "properties": { "field1": "경기도 김포시 고촌읍 신곡로3번길 34-16", "field2": "동일하이빌경로당", "field3": "특정계층이용시설-회원이용시설", "field4": "13:00 ~ 17:00 (월-일)", "field5": null, "field6": "특정인 이용가능", "_GC_TYPE": "정", "_CLEANADDR": "경기도 김포시 신곡로3번길 34-16 (고촌읍)", "_PNU": 4157025324111110000, "_X": 126.77468669129495, "_Y": 37.603497310612809 }, "geometry": { "type": "Point", "coordinates": [ 126.774686691294946, 37.603497310612809 ] } },
{ "type": "Feature", "properties": { "field1": "경기도 김포시 고촌읍 장차로 25", "field2": "고송경로당", "field3": "특정계층이용시설-회원이용시설", "field4": "13:00 ~ 17:00 (월-일)", "field5": null, "field6": "특정인 이용가능", "_GC_TYPE": "정", "_CLEANADDR": "경기도 김포시 장차로 25 (고촌읍)", "_PNU": 4157025324105390001, "_X": 126.76977607341784, "_Y": 37.604291658223644 }, "geometry": { "type": "Point", "coordinates": [ 126.769776073417844, 37.604291658223644 ] } },
{ "type": "Feature", "properties": { "field1": "경기도 김포시 고촌읍 신곡로 33", "field2": "청도솔리움아파트경로당", "field3": "특정계층이용시설-회원이용시설", "field4": "13:00 ~ 17:00 (월-일)", "field5": null, "field6": "특정인 이용가능", "_GC_TYPE": "정", "_CLEANADDR": "경기도 김포시 신곡로 33 (고촌읍)", "_PNU": 4157025324111020000, "_X": 126.77496997702244, "_Y": 37.605691627843044 }, "geometry": { "type": "Point", "coordinates": [ 126.774969977022437, 37.605691627843044 ] } },
{ "type": "Feature", "properties": { "field1": "경기도 김포시 고촌읍 고송로 17", "field2": "대우아파트경로당", "field3": "특정계층이용시설-회원이용시설", "field4": "13:00 ~ 17:00 (월-일)", "field5": null, "field6": "특정인 이용가능", "_GC_TYPE": "정", "_CLEANADDR": "경기도 김포시 고송로 17 (고촌읍)", "_PNU": 4157025324110520000, "_X": 126.76853887358949, "_Y": 37.605800822464929 }, "geometry": { "type": "Point", "coordinates": [ 126.768538873589492, 37.605800822464929 ] } },
{ "type": "Feature", "properties": { "field1": "경기도 김포시 고촌읍 전호로26번길 4", "field2": "전호1리경로당", "field3": "특정계층이용시설-회원이용시설", "field4": "13:00 ~ 17:00 (월-일)", "field5": null, "field6": "특정인 이용가능", "_GC_TYPE": "정", "_CLEANADDR": "경기도 김포시 전호로26번길 4 (고촌읍)", "_PNU": 4157025325100350009, "_X": 126.79497035752186, "_Y": 37.601603524266558 }, "geometry": { "type": "Point", "coordinates": [ 126.794970357521862, 37.601603524266558 ] } },
{ "type": "Feature", "properties": { "field1": "경기도 김포시 고촌읍 장차로 14", "field2": "고촌읍행정복지센터", "field3": "공공시설-공공청사", "field4": "09:00 ~ 18:00 (월-금)", "field5": null, "field6": "누구나 이용가능", "_GC_TYPE": "정", "_CLEANADDR": "경기도 김포시 장차로 14 (고촌읍)", "_PNU": 4157025324112920000, "_X": 126.77102079445746, "_Y": 37.60329637985339 }, "geometry": { "type": "Point", "coordinates": [ 126.771020794457456, 37.60329637985339 ] } },
{ "type": "Feature", "properties": { "field1": "경기도 김포시 양촌읍 양곡1로68번길 37", "field2": "양촌읍행정복지센터및북카페", "field3": "공공시설-공공청사", "field4": "09:00 ~ 18:00 (월-금)", "field5": null, "field6": "누구나 이용가능", "_GC_TYPE": "정", "_CLEANADDR": "경기도 김포시 양곡1로68번길 37 (양촌읍)", "_PNU": 4157025621115540000, "_X": 126.62543193887184, "_Y": 37.657207832689892 }, "geometry": { "type": "Point", "coordinates": [ 126.625431938871841, 37.657207832689892 ] } },
{ "type": "Feature", "properties": { "field1": "경기도 김포시 양촌읍 삼도로 302", "field2": "학운4리경로당", "field3": "특정계층이용시설-회원이용시설", "field4": "13:00 ~ 17:00 (월-일)", "field5": null, "field6": "특정인 이용가능", "_GC_TYPE": "정", "_CLEANADDR": "경기도 김포시 삼도로 302 (양촌읍)", "_PNU": 4157025626109880000, "_X": 126.60028476933488, "_Y": 37.617728939563193 }, "geometry": { "type": "Point", "coordinates": [ 126.600284769334877, 37.617728939563193 ] } },
{ "type": "Feature", "properties": { "field1": "경기도 김포시 양촌읍 고음달로 88-1", "field2": "학운6리경로당", "field3": "특정계층이용시설-회원이용시설", "field4": "13:00 ~ 17:00 (월-일)", "field5": null, "field6": "특정인 이용가능", "_GC_TYPE": "정", "_CLEANADDR": "경기도 김포시 고음달로 88-1 (양촌읍)", "_PNU": 4157025626110430003, "_X": 126.59992666329104, "_Y": 37.619902983918095 }, "geometry": { "type": "Point", "coordinates": [ 126.599926663291043, 37.619902983918095 ] } },
{ "type": "Feature", "properties": { "field1": "경기도 김포시 양촌읍 양곡2로 5-4", "field2": "구래4리경로당", "field3": "특정계층이용시설-회원이용시설", "field4": "13:00 ~ 17:00 (월-일)", "field5": null, "field6": "특정인 이용가능", "_GC_TYPE": "정", "_CLEANADDR": "경기도 김포시 양곡2로 5-4 (양촌읍)", "_PNU": 4157025624104430003, "_X": 126.62671090860255, "_Y": 37.652122919871374 }, "geometry": { "type": "Point", "coordinates": [ 126.626710908602547, 37.652122919871374 ] } },
{ "type": "Feature", "properties": { "field1": "경기도 김포시 양촌읍 김포대로1750번길 96", "field2": "누산1리경로당", "field3": "특정계층이용시설-회원이용시설", "field4": "13:00 ~ 17:00 (월-일)", "field5": null, "field6": "특정인 이용가능", "_GC_TYPE": "정", "_CLEANADDR": "경기도 김포시 김포대로1750번길 96 (양촌읍)", "_PNU": 4157025622106820001, "_X": 126.64350653930497, "_Y": 37.672716160080903 }, "geometry": { "type": "Point", "coordinates": [ 126.643506539304965, 37.672716160080903 ] } },
{ "type": "Feature", "properties": { "field1": "경기도 김포시 양촌읍 양곡1로 77", "field2": "양곡9리경로당", "field3": "특정계층이용시설-회원이용시설", "field4": "13:00 ~ 17:00 (월-일)", "field5": null, "field6": "특정인 이용가능", "_GC_TYPE": "정", "_CLEANADDR": "경기도 김포시 양곡1로 77 (양촌읍)", "_PNU": 4157025621112300000, "_X": 126.62190559888444, "_Y": 37.656745875689289 }, "geometry": { "type": "Point", "coordinates": [ 126.621905598884439, 37.656745875689289 ] } },
{ "type": "Feature", "properties": { "field1": "경기도 김포시 양촌읍 양곡1로 66-8", "field2": "양곡16리경로당", "field3": "특정계층이용시설-회원이용시설", "field4": "13:00 ~ 17:00 (월-일)", "field5": null, "field6": "특정인 이용가능", "_GC_TYPE": "정", "_CLEANADDR": "경기도 김포시 양곡1로 66-8 (양촌읍)", "_PNU": 4157025621104460004, "_X": 126.62349925982633, "_Y": 37.656392784548096 }, "geometry": { "type": "Point", "coordinates": [ 126.623499259826332, 37.656392784548096 ] } },
{ "type": "Feature", "properties": { "field1": "경기도 김포시 양촌읍 양곡로390번길 43", "field2": "양능마을경로당", "field3": "특정계층이용시설-회원이용시설", "field4": "13:00 ~ 17:00 (월-일)", "field5": null, "field6": "특정인 이용가능", "_GC_TYPE": "정", "_CLEANADDR": "경기도 김포시 양곡로390번길 43 (양촌읍)", "_PNU": 4157025621101040003, "_X": 126.63529601434813, "_Y": 37.664498448251507 }, "geometry": { "type": "Point", "coordinates": [ 126.635296014348128, 37.664498448251507 ] } },
{ "type": "Feature", "properties": { "field1": "경기도 김포시 양촌읍 양곡1로68번길 59", "field2": "삼정그린코아경로당", "field3": "특정계층이용시설-회원이용시설", "field4": "13:00 ~ 17:00 (월-일)", "field5": null, "field6": "특정인 이용가능", "_GC_TYPE": "정", "_CLEANADDR": "경기도 김포시 양곡1로68번길 59 (양촌읍)", "_PNU": 4157025621115510000, "_X": 126.62647997252483, "_Y": 37.658195011775142 }, "geometry": { "type": "Point", "coordinates": [ 126.626479972524834, 37.658195011775142 ] } },
{ "type": "Feature", "properties": { "field1": "경기도 김포시 양촌읍 양곡4로197번길 40", "field2": "양곡도서관", "field3": "공공시설-복지·문화·체육시설", "field4": "09:00 ~ 22:00 (월-목)", "field5": null, "field6": "누구나 이용가능", "_GC_TYPE": "정", "_CLEANADDR": "경기도 김포시 양곡4로197번길 40 (양촌읍)", "_PNU": 4157025621112400000, "_X": 126.63147357524255, "_Y": 37.661626879906294 }, "geometry": { "type": "Point", "coordinates": [ 126.631473575242552, 37.661626879906294 ] } },
{ "type": "Feature", "properties": { "field1": "경기도 김포시 대곶면 용두로 4", "field2": "초원2리경로당", "field3": "특정계층이용시설-회원이용시설", "field4": "13:00 ~ 17:00 (월-일)", "field5": null, "field6": "특정인 이용가능", "_GC_TYPE": "정", "_CLEANADDR": "경기도 김포시 용두로 4 (대곶면)", "_PNU": 4157034026104360001, "_X": 126.59622578389589, "_Y": 37.65834325748007 }, "geometry": { "type": "Point", "coordinates": [ 126.596225783895889, 37.65834325748007 ] } },
{ "type": "Feature", "properties": { "field1": "경기도 김포시 대곶면 율생중앙로206번길 145", "field2": "송마1리경로당", "field3": "특정계층이용시설-회원이용시설", "field4": "13:00 ~ 17:00 (월-일)", "field5": null, "field6": "특정인 이용가능", "_GC_TYPE": "정", "_CLEANADDR": "경기도 김포시 율생중앙로206번길 145 (대곶면)", "_PNU": 4157034029100030070, "_X": 126.57935699394172, "_Y": 37.665739289619971 }, "geometry": { "type": "Point", "coordinates": [ 126.579356993941715, 37.665739289619971 ] } },
{ "type": "Feature", "properties": { "field1": "경기도 김포시 대곶면 산자뫼로 102", "field2": "송마3리경로당", "field3": "특정계층이용시설-회원이용시설", "field4": "13:00 ~ 17:00 (월-일)", "field5": null, "field6": "특정인 이용가능", "_GC_TYPE": "정", "_CLEANADDR": "경기도 김포시 산자뫼로 102 (대곶면)", "_PNU": 4157034029108170000, "_X": 126.56499576920089, "_Y": 37.655291403167624 }, "geometry": { "type": "Point", "coordinates": [ 126.564995769200891, 37.655291403167624 ] } },
{ "type": "Feature", "properties": { "field1": "경기도 김포시 대곶면 쇄암로 128", "field2": "쇄암리경로당", "field3": "특정계층이용시설-회원이용시설", "field4": "13:00 ~ 17:00 (월-일)", "field5": null, "field6": "특정인 이용가능", "_GC_TYPE": "정", "_CLEANADDR": "경기도 김포시 쇄암로 128 (대곶면)", "_PNU": 4157034031102840008, "_X": 126.54178439074656, "_Y": 37.678890233069914 }, "geometry": { "type": "Point", "coordinates": [ 126.541784390746557, 37.678890233069914 ] } },
{ "type": "Feature", "properties": { "field1": "경기도 김포시 대곶면 율생로 83-23", "field2": "대곶면행정복지센터", "field3": "공공시설-공공청사", "field4": "09:00 ~ 18:00 (월-금)", "field5": null, "field6": "누구나 이용가능", "_GC_TYPE": "정", "_CLEANADDR": "경기도 김포시 율생로 83-23 (대곶면)", "_PNU": 4157034025105290003, "_X": 126.58218721284787, "_Y": 37.649346393216597 }, "geometry": { "type": "Point", "coordinates": [ 126.58218721284787, 37.649346393216597 ] } },
{ "type": "Feature", "properties": { "field1": "경기도 김포시 월곶면 군하로 263", "field2": "월곶면행정복지센터", "field3": "공공시설-공공청사", "field4": "09:00 ~ 18:00 (월-금)", "field5": null, "field6": "누구나 이용가능", "_GC_TYPE": "정", "_CLEANADDR": "경기도 김포시 군하로 263 (월곶면)", "_PNU": 4157035021101880011, "_X": 126.55287356648941, "_Y": 37.715119495505661 }, "geometry": { "type": "Point", "coordinates": [ 126.55287356648941, 37.715119495505661 ] } },
{ "type": "Feature", "properties": { "field1": "경기도 김포시 월곶면 용강로437번길 98", "field2": "용강리경로당", "field3": "특정계층이용시설-회원이용시설", "field4": "13:00 ~ 17:00 (월-일)", "field5": null, "field6": "특정인 이용가능", "_GC_TYPE": "정", "_CLEANADDR": "경기도 김포시 용강로437번길 98 (월곶면)", "_PNU": 4157035028102670002, "_X": 126.5527326933689, "_Y": 37.758682044708245 }, "geometry": { "type": "Point", "coordinates": [ 126.552732693368895, 37.758682044708245 ] } },
{ "type": "Feature", "properties": { "field1": "경기도 김포시 월곶면 김포대학로 232-1", "field2": "고막1리경로당", "field3": "특정계층이용시설-회원이용시설", "field4": "13:00 ~ 17:00 (월-일)", "field5": null, "field6": "특정인 이용가능", "_GC_TYPE": "정", "_CLEANADDR": "경기도 김포시 김포대학로 232-1 (월곶면)", "_PNU": 4157035022103050008, "_X": 126.5574959744514, "_Y": 37.725201995609467 }, "geometry": { "type": "Point", "coordinates": [ 126.557495974451399, 37.725201995609467 ] } },
{ "type": "Feature", "properties": { "field1": "경기도 김포시 월곶면 문수산로252번길 7", "field2": "성동2리경로당", "field3": "특정계층이용시설-회원이용시설", "field4": "13:00 ~ 17:00 (월-일)", "field5": null, "field6": "특정인 이용가능", "_GC_TYPE": "정", "_CLEANADDR": "경기도 김포시 문수산로252번길 7 (월곶면)", "_PNU": 4157035026101250001, "_X": 126.53599610853331, "_Y": 37.750763954971724 }, "geometry": { "type": "Point", "coordinates": [ 126.535996108533311, 37.750763954971724 ] } },
{ "type": "Feature", "properties": { "field1": "경기도 김포시 월곶면 포내로83번길 24", "field2": "포내1리경로당", "field3": "특정계층이용시설-회원이용시설", "field4": "13:00 ~ 17:00 (월-일)", "field5": null, "field6": "특정인 이용가능", "_GC_TYPE": "정", "_CLEANADDR": "경기도 김포시 포내로83번길 24 (월곶면)", "_PNU": 4157035025103000005, "_X": 126.52750353097036, "_Y": 37.720777328895934 }, "geometry": { "type": "Point", "coordinates": [ 126.527503530970364, 37.720777328895934 ] } },
{ "type": "Feature", "properties": { "field1": "경기도 김포시 월곶면 고양로115번길 209", "field2": "고양1리경로당", "field3": "특정계층이용시설-회원이용시설", "field4": "13:00 ~ 17:00 (월-일)", "field5": null, "field6": "특정인 이용가능", "_GC_TYPE": "정", "_CLEANADDR": "경기도 김포시 고양로115번길 209 (월곶면)", "_PNU": 4157035024104500005, "_X": 126.55370647723748, "_Y": 37.687818225460902 }, "geometry": { "type": "Point", "coordinates": [ 126.553706477237483, 37.687818225460902 ] } },
{ "type": "Feature", "properties": { "field1": "경기도 김포시 하성면 월하로672번길 38-4", "field2": "원산2리경로당", "field3": "특정계층이용시설-회원이용시설", "field4": "13:00 ~ 17:00 (월-일)", "field5": null, "field6": "특정인 이용가능", "_GC_TYPE": "정", "_CLEANADDR": "경기도 김포시 월하로672번길 38-4 (하성면)", "_PNU": 4157036028105540000, "_X": 126.62880473367863, "_Y": 37.70744271595602 }, "geometry": { "type": "Point", "coordinates": [ 126.628804733678635, 37.70744271595602 ] } },
{ "type": "Feature", "properties": { "field1": "경기도 김포시 하성면 하성로678번길 64", "field2": "양택1리경로당", "field3": "특정계층이용시설-회원이용시설", "field4": "13:00 ~ 17:00 (월-일)", "field5": null, "field6": "특정인 이용가능", "_GC_TYPE": "정", "_CLEANADDR": "경기도 김포시 하성로678번길 64 (하성면)", "_PNU": 4157036027104050000, "_X": 126.63133504431541, "_Y": 37.731996388080468 }, "geometry": { "type": "Point", "coordinates": [ 126.631335044315406, 37.731996388080468 ] } },
{ "type": "Feature", "properties": { "field1": "경기도 김포시 하성면 가금로 282", "field2": "가금1리경로당무더위쉼터", "field3": "특정계층이용시설-회원이용시설", "field4": "09:00 ~ 17:00 (월-일)", "field5": null, "field6": "특정인 이용가능", "_GC_TYPE": "정", "_CLEANADDR": "경기도 김포시 가금로 282 (하성면)", "_PNU": 4157036026104920005, "_X": 126.6183078837872, "_Y": 37.743538864474402 }, "geometry": { "type": "Point", "coordinates": [ 126.618307883787196, 37.743538864474402 ] } },
{ "type": "Feature", "properties": { "field1": "경기도 김포시 하성면 하성로 914", "field2": "마조2리경로당", "field3": "특정계층이용시설-회원이용시설", "field4": "13:00 ~ 17:00 (월-일)", "field5": null, "field6": "특정인 이용가능", "_GC_TYPE": "정", "_CLEANADDR": "경기도 김포시 하성로 914 (하성면)", "_PNU": 4157036025101880001, "_X": 126.63385339231949, "_Y": 37.752722343424963 }, "geometry": { "type": "Point", "coordinates": [ 126.633853392319494, 37.752722343424963 ] } },
{ "type": "Feature", "properties": { "field1": "경기도 김포시 하성면 하성로1141번길 123", "field2": "시암2리경로당", "field3": "특정계층이용시설-회원이용시설", "field4": "13:00 ~ 17:00 (월-일)", "field5": null, "field6": "특정인 이용가능", "_GC_TYPE": "정", "_CLEANADDR": "경기도 김포시 하성로1141번길 123 (하성면)", "_PNU": 4157036024101550000, "_X": 126.6438605996938, "_Y": 37.766616424008838 }, "geometry": { "type": "Point", "coordinates": [ 126.643860599693795, 37.766616424008838 ] } },
{ "type": "Feature", "properties": { "field1": "경기도 김포시 하성면 석평로 108-1", "field2": "석탄2리경로당", "field3": "특정계층이용시설-회원이용시설", "field4": "11:00 ~ 17:00 (월-일)", "field5": null, "field6": "특정인 이용가능", "_GC_TYPE": "정", "_CLEANADDR": "경기도 김포시 석평로 108-1 (하성면)", "_PNU": 4157036022106260003, "_X": 126.64537497115337, "_Y": 37.722763790935346 }, "geometry": { "type": "Point", "coordinates": [ 126.645374971153373, 37.722763790935346 ] } },
{ "type": "Feature", "properties": { "field1": "경기도 김포시 하성면 석평로184번길 112-5", "field2": "석탄4리경로당", "field3": "특정계층이용시설-회원이용시설", "field4": "11:00 ~ 17:00 (월-일)", "field5": null, "field6": "특정인 이용가능", "_GC_TYPE": "정", "_CLEANADDR": "경기도 김포시 석평로184번길 112-5 (하성면)", "_PNU": 4157036022101900001, "_X": 126.65693228527957, "_Y": 37.728732092882375 }, "geometry": { "type": "Point", "coordinates": [ 126.656932285279566, 37.728732092882375 ] } },
{ "type": "Feature", "properties": { "field1": "경기도 김포시 하성면 하성로 480-17", "field2": "마곡4리경로당", "field3": "특정계층이용시설-회원이용시설", "field4": "13:00 ~ 17:00 (월-일)", "field5": null, "field6": "특정인 이용가능", "_GC_TYPE": "정", "_CLEANADDR": "경기도 김포시 하성로 480-17 (하성면)", "_PNU": 4157036021105840002, "_X": 126.63675960501132, "_Y": 37.718493288032249 }, "geometry": { "type": "Point", "coordinates": [ 126.636759605011321, 37.718493288032249 ] } },
{ "type": "Feature", "properties": { "field1": "경기도 김포시 하성면 애기봉로 845", "field2": "하성면행정복지센터", "field3": "공공시설-공공청사", "field4": "09:00 ~ 18:00 (월-금)", "field5": null, "field6": "누구나 이용가능", "_GC_TYPE": "정", "_CLEANADDR": "경기도 김포시 애기봉로 845 (하성면)", "_PNU": 4157036021106230003, "_X": 126.63133354471188, "_Y": 37.720183836160402 }, "geometry": { "type": "Point", "coordinates": [ 126.631333544711879, 37.720183836160402 ] } },
{ "type": "Feature", "properties": { "field1": "경기도 김포시 하성면 석평로166번길 19", "field2": "석탄3리경로당", "field3": "특정계층이용시설-회원이용시설", "field4": "13:00 ~ 17:00 (월-일)", "field5": null, "field6": "특정인 이용가능", "_GC_TYPE": "정", "_CLEANADDR": "경기도 김포시 석평로166번길 19 (하성면)", "_PNU": 4157036022102390048, "_X": 126.65115353644134, "_Y": 37.724845650414174 }, "geometry": { "type": "Point", "coordinates": [ 126.651153536441342, 37.724845650414174 ] } },
{ "type": "Feature", "properties": { "field1": "경기도 김포시 하성면 석평로 222", "field2": "석탄5리경로당", "field3": "특정계층이용시설-회원이용시설", "field4": "13:00 ~ 17:00 (월-일)", "field5": null, "field6": "특정인 이용가능", "_GC_TYPE": "정", "_CLEANADDR": "경기도 김포시 석평로 222 (하성면)", "_PNU": 4157036022100900007, "_X": 126.65200021928725, "_Y": 37.730014634482117 }, "geometry": { "type": "Point", "coordinates": [ 126.652000219287245, 37.730014634482117 ] } },
{ "type": "Feature", "properties": { "field1": "경기도 김포시 하성면 애기봉로806번길 68-13", "field2": "마곡1리경로당", "field3": "특정계층이용시설-회원이용시설", "field4": "13:00 ~ 17:00 (월-일)", "field5": null, "field6": "특정인 이용가능", "_GC_TYPE": "정", "_CLEANADDR": "경기도 김포시 애기봉로806번길 68-13 (하성면)", "_PNU": 4157036021106370001, "_X": 126.63077994993033, "_Y": 37.718742663826845 }, "geometry": { "type": "Point", "coordinates": [ 126.630779949930329, 37.718742663826845 ] } },
{ "type": "Feature", "properties": { "field1": "경기도 김포시 하성면 마근포로 123-2", "field2": "마근포리경로당", "field3": "특정계층이용시설-회원이용시설", "field4": "13:00 ~ 17:00 (월-일)", "field5": null, "field6": "특정인 이용가능", "_GC_TYPE": "정", "_CLEANADDR": "경기도 김포시 마근포로 123-2 (하성면)", "_PNU": 4157036032102060008, "_X": 126.62461074842136, "_Y": 37.753170544782527 }, "geometry": { "type": "Point", "coordinates": [ 126.624610748421361, 37.753170544782527 ] } },
{ "type": "Feature", "properties": { "field1": "경기도 김포시 북변1로 13", "field2": "김포본동행정복지센터", "field3": "공공시설-공공청사", "field4": "09:00 ~ 18:00 (월-금)", "field5": null, "field6": "누구나 이용가능", "_GC_TYPE": "정", "_CLEANADDR": "경기도 김포시 북변1로 13 (북변동)", "_PNU": 4157010100107030000, "_X": 126.70573860992212, "_Y": 37.62756682213135 }, "geometry": { "type": "Point", "coordinates": [ 126.705738609922122, 37.62756682213135 ] } },
{ "type": "Feature", "properties": { "field1": "경기도 김포시 봉화로182번길 33", "field2": "북변대우아파트경로당", "field3": "특정계층이용시설-회원이용시설", "field4": "10:00 ~ 17:00 (월-일)", "field5": null, "field6": "특정인 이용가능", "_GC_TYPE": "정", "_CLEANADDR": "경기도 김포시 봉화로182번길 33 (북변동)", "_PNU": 4157010100106880000, "_X": 126.70365214604148, "_Y": 37.629886199007878 }, "geometry": { "type": "Point", "coordinates": [ 126.703652146041478, 37.629886199007878 ] } },
{ "type": "Feature", "properties": { "field1": "경기도 김포시 감정로 64", "field2": "신안실크밸리경로당", "field3": "특정계층이용시설-회원이용시설", "field4": "09:00 ~ 18:00 (월-일)", "field5": null, "field6": "특정인 이용가능", "_GC_TYPE": "정", "_CLEANADDR": "경기도 김포시 감정로 64 (감정동)", "_PNU": 4157010500106860000, "_X": 126.70000404005548, "_Y": 37.618426938359462 }, "geometry": { "type": "Point", "coordinates": [ 126.700004040055475, 37.618426938359462 ] } },
{ "type": "Feature", "properties": { "field1": "경기도 김포시 봉화로167번길 35-9", "field2": "건영아파트경로당", "field3": "특정계층이용시설-회원이용시설", "field4": "09:00 ~ 17:00 (월-일)", "field5": null, "field6": "특정인 이용가능", "_GC_TYPE": "정", "_CLEANADDR": "경기도 김포시 봉화로167번길 35-9 (감정동)", "_PNU": 4157010500106720000, "_X": 126.70243246971656, "_Y": 37.625702643042509 }, "geometry": { "type": "Point", "coordinates": [ 126.702432469716555, 37.625702643042509 ] } },
{ "type": "Feature", "properties": { "field1": "경기도 김포시 감정로 75", "field2": "신안실크밸리(2차)경로당", "field3": "특정계층이용시설-회원이용시설", "field4": "09:00 ~ 17:00 (월-일)", "field5": null, "field6": "특정인 이용가능", "_GC_TYPE": "정", "_CLEANADDR": "경기도 김포시 감정로 75 (감정동)", "_PNU": 4157010500106940000, "_X": 126.7038753936594, "_Y": 37.617038459073527 }, "geometry": { "type": "Point", "coordinates": [ 126.703875393659402, 37.617038459073527 ] } },
{ "type": "Feature", "properties": { "field1": "경기도 김포시 봉화로181번길 31-14", "field2": "한국아파트경로당", "field3": "특정계층이용시설-회원이용시설", "field4": "10:00 ~ 17:00 (월-일)", "field5": null, "field6": "특정인 이용가능", "_GC_TYPE": "정", "_CLEANADDR": "경기도 김포시 봉화로181번길 31-14 (감정동)", "_PNU": 4157010500106760000, "_X": 126.70053019922703, "_Y": 37.625904767349823 }, "geometry": { "type": "Point", "coordinates": [ 126.700530199227032, 37.625904767349823 ] } },
{ "type": "Feature", "properties": { "field1": "경기도 김포시 북변1로16번길 34", "field2": "산호아파트경로당", "field3": "특정계층이용시설-회원이용시설", "field4": "10:00 ~ 17:00 (월-일)", "field5": null, "field6": "특정인 이용가능", "_GC_TYPE": "정", "_CLEANADDR": "경기도 김포시 북변1로16번길 34 (북변동)", "_PNU": 4157010100106900000, "_X": 126.70533208896116, "_Y": 37.628933298459884 }, "geometry": { "type": "Point", "coordinates": [ 126.705332088961157, 37.628933298459884 ] } },
{ "type": "Feature", "properties": { "field1": "경기도 김포시 김포한강1로 9", "field2": "반도유보라경로당", "field3": "특정계층이용시설-회원이용시설", "field4": "13:00 ~ 17:00 (월-일)", "field5": null, "field6": "특정인 이용가능", "_GC_TYPE": "정", "_CLEANADDR": "경기도 김포시 김포한강1로 9 (장기동)", "_PNU": 4157010400116420000, "_X": 126.66439260291655, "_Y": 37.640219831519232 }, "geometry": { "type": "Point", "coordinates": [ 126.66439260291655, 37.640219831519232 ] } },
{ "type": "Feature", "properties": { "field1": "경기도 김포시 김포한강3로 290-16", "field2": "이니스더원경로당", "field3": "특정계층이용시설-회원이용시설", "field4": "13:00 ~ 17:00 (월-일)", "field5": null, "field6": "특정인 이용가능", "_GC_TYPE": "정", "_CLEANADDR": "경기도 김포시 김포한강3로 290-16 (장기동)", "_PNU": 4157010400116350000, "_X": 126.66243274941914, "_Y": 37.64204617576263 }, "geometry": { "type": "Point", "coordinates": [ 126.662432749419139, 37.64204617576263 ] } },
{ "type": "Feature", "properties": { "field1": "경기도 김포시 청송로 70", "field2": "청송1단지아파트경로당", "field3": "특정계층이용시설-회원이용시설", "field4": "13:00 ~ 17:00 (월-일)", "field5": null, "field6": "특정인 이용가능", "_GC_TYPE": "정", "_CLEANADDR": "경기도 김포시 청송로 70 (장기동)", "_PNU": 4157010400113390000, "_X": 126.67105930555607, "_Y": 37.65060422904849 }, "geometry": { "type": "Point", "coordinates": [ 126.671059305556071, 37.65060422904849 ] } },
{ "type": "Feature", "properties": { "field1": "경기도 김포시 청송로 20", "field2": "청송2단지아파트경로당", "field3": "특정계층이용시설-회원이용시설", "field4": "13:00 ~ 17:00 (월-일)", "field5": null, "field6": "특정인 이용가능", "_GC_TYPE": "정", "_CLEANADDR": "경기도 김포시 청송로 20 (장기동)", "_PNU": 4157010400113420000, "_X": 126.66833712438243, "_Y": 37.646142305540806 }, "geometry": { "type": "Point", "coordinates": [ 126.668337124382433, 37.646142305540806 ] } },
{ "type": "Feature", "properties": { "field1": "경기도 김포시 청송로 19", "field2": "청송3단지경로당", "field3": "특정계층이용시설-회원이용시설", "field4": "13:00 ~ 17:00 (월-일)", "field5": null, "field6": "특정인 이용가능", "_GC_TYPE": "정", "_CLEANADDR": "경기도 김포시 청송로 19 (장기동)", "_PNU": 4157010400113120000, "_X": 126.66593705767839, "_Y": 37.648940180796764 }, "geometry": { "type": "Point", "coordinates": [ 126.665937057678391, 37.648940180796764 ] } },
{ "type": "Feature", "properties": { "field1": "경기도 김포시 김포한강2로 192", "field2": "자연앤어울림경로당", "field3": "특정계층이용시설-회원이용시설", "field4": "13:00 ~ 17:00 (월-일)", "field5": null, "field6": "특정인 이용가능", "_GC_TYPE": "정", "_CLEANADDR": "경기도 김포시 김포한강2로 192 (장기동)", "_PNU": 4157010400116290000, "_X": 126.66494371549101, "_Y": 37.644067674206269 }, "geometry": { "type": "Point", "coordinates": [ 126.664943715491006, 37.644067674206269 ] } },
{ "type": "Feature", "properties": { "field1": "경기도 김포시 운곡로 17-5", "field2": "운곡경로당", "field3": "특정계층이용시설-회원이용시설", "field4": "13:00 ~ 17:00 (월-일)", "field5": null, "field6": "특정인 이용가능", "_GC_TYPE": "정", "_CLEANADDR": "경기도 김포시 운곡로 17-5 (장기동)", "_PNU": 4157010400101450001, "_X": 126.65991700565638, "_Y": 37.649942398792241 }, "geometry": { "type": "Point", "coordinates": [ 126.659917005656382, 37.649942398792241 ] } },
{ "type": "Feature", "properties": { "field1": "경기도 김포시 김포대로 1433", "field2": "장기본동행정복지센터", "field3": "공공시설-공공청사", "field4": "09:00 ~ 18:00 (월-금)", "field5": null, "field6": "누구나 이용가능", "_GC_TYPE": "정", "_CLEANADDR": "경기도 김포시 김포대로 1433 (장기동)", "_PNU": 4157010400113380000, "_X": 126.6717121912086, "_Y": 37.652301413778112 }, "geometry": { "type": "Point", "coordinates": [ 126.671712191208599, 37.652301413778112 ] } },
{ "type": "Feature", "properties": { "field1": "경기도 김포시 풍무로 232", "field2": "길훈4차경로당", "field3": "특정계층이용시설-회원이용시설", "field4": "13:00 ~ 17:00 (월-일)", "field5": null, "field6": "특정인 이용가능", "_GC_TYPE": "정", "_CLEANADDR": "경기도 김포시 풍무로 232 (사우동)", "_PNU": 4157010600103850000, "_X": 126.72577982421647, "_Y": 37.615345513158239 }, "geometry": { "type": "Point", "coordinates": [ 126.725779824216474, 37.615345513158239 ] } },
{ "type": "Feature", "properties": { "field1": "경기도 김포시 풍무로208번길 21-19", "field2": "사우2통경로당", "field3": "특정계층이용시설-회원이용시설", "field4": "13:00 ~ 17:00 (월-일)", "field5": null, "field6": "특정인 이용가능", "_GC_TYPE": "정", "_CLEANADDR": "경기도 김포시 풍무로208번길 21-19 (사우동)", "_PNU": 4157010600104100000, "_X": 126.7265408445559, "_Y": 37.614548693135831 }, "geometry": { "type": "Point", "coordinates": [ 126.726540844555899, 37.614548693135831 ] } },
{ "type": "Feature", "properties": { "field1": "경기도 김포시 사우로 59-30", "field2": "3통경로당", "field3": "특정계층이용시설-회원이용시설", "field4": "13:00 ~ 17:00 (월-일)", "field5": null, "field6": "특정인 이용가능", "_GC_TYPE": "정", "_CLEANADDR": "경기도 김포시 사우로 59-30 (사우동)", "_PNU": 4157010600100360003, "_X": 126.72857410983505, "_Y": 37.621326593907256 }, "geometry": { "type": "Point", "coordinates": [ 126.728574109835051, 37.621326593907256 ] } },
{ "type": "Feature", "properties": { "field1": "경기도 김포시 사우중로74번길 66", "field2": "사우대우아파트경로당", "field3": "특정계층이용시설-회원이용시설", "field4": "13:00 ~ 17:00 (월-일)", "field5": null, "field6": "특정인 이용가능", "_GC_TYPE": "정", "_CLEANADDR": "경기도 김포시 사우중로74번길 66 (사우동)", "_PNU": 4157010600114750000, "_X": 126.72304975614546, "_Y": 37.622887412884168 }, "geometry": { "type": "Point", "coordinates": [ 126.723049756145457, 37.622887412884168 ] } },
{ "type": "Feature", "properties": { "field1": "경기도 김포시 돌문로15번길 45", "field2": "사우한신아파트경로당", "field3": "특정계층이용시설-회원이용시설", "field4": "13:00 ~ 17:00 (월-일)", "field5": null, "field6": "특정인 이용가능", "_GC_TYPE": "정", "_CLEANADDR": "경기도 김포시 돌문로15번길 45 (사우동)", "_PNU": 4157010600114790000, "_X": 126.72050425321486, "_Y": 37.616277363136234 }, "geometry": { "type": "Point", "coordinates": [ 126.720504253214855, 37.616277363136234 ] } },
{ "type": "Feature", "properties": { "field1": "경기도 김포시 봉화로 13-17", "field2": "사우8통경로당", "field3": "특정계층이용시설-회원이용시설", "field4": "13:00 ~ 17:00 (월-일)", "field5": null, "field6": "특정인 이용가능", "_GC_TYPE": "정", "_CLEANADDR": "경기도 김포시 봉화로 13-17 (사우동)", "_PNU": 4157010600102490003, "_X": 126.71579069007187, "_Y": 37.617532770032525 }, "geometry": { "type": "Point", "coordinates": [ 126.71579069007187, 37.617532770032525 ] } },
{ "type": "Feature", "properties": { "field1": "경기도 김포시 사우중로74번길 12", "field2": "동양신명경로당", "field3": "특정계층이용시설-회원이용시설", "field4": "13:00 ~ 17:00 (월-일)", "field5": null, "field6": "특정인 이용가능", "_GC_TYPE": "정", "_CLEANADDR": "경기도 김포시 사우중로74번길 12 (사우동)", "_PNU": 4157010600109120000, "_X": 126.72183557036942, "_Y": 37.620906943578198 }, "geometry": { "type": "Point", "coordinates": [ 126.721835570369421, 37.620906943578198 ] } },
{ "type": "Feature", "properties": { "field1": "경기도 김포시 봉화로 59-17", "field2": "농장마을신안아파트경로당", "field3": "특정계층이용시설-회원이용시설", "field4": "13:00 ~ 17:00 (월-일)", "field5": null, "field6": "특정인 이용가능", "_GC_TYPE": "정", "_CLEANADDR": "경기도 김포시 봉화로 59-17 (사우동)", "_PNU": 4157010600112240000, "_X": 126.71098294464153, "_Y": 37.619615918003483 }, "geometry": { "type": "Point", "coordinates": [ 126.710982944641529, 37.619615918003483 ] } },
{ "type": "Feature", "properties": { "field1": "경기도 김포시 돌문로 51", "field2": "사우동행정복지센터", "field3": "공공시설-공공청사", "field4": "09:00 ~ 18:00 (월-금)", "field5": null, "field6": "누구나 이용가능", "_GC_TYPE": "정", "_CLEANADDR": "경기도 김포시 돌문로 51 (사우동)", "_PNU": 4157010600102360002, "_X": 126.71674738034176, "_Y": 37.619305946564623 }, "geometry": { "type": "Point", "coordinates": [ 126.716747380341758, 37.619305946564623 ] } },
{ "type": "Feature", "properties": { "field1": "경기도 김포시 풍무로 35", "field2": "현대아파트경로당", "field3": "특정계층이용시설-회원이용시설", "field4": "09:00 ~ 17:00 (월-일)", "field5": null, "field6": "특정인 이용가능", "_GC_TYPE": "정", "_CLEANADDR": "경기도 김포시 풍무로 35 (풍무동)", "_PNU": 4157010700107430000, "_X": 126.71872013092566, "_Y": 37.598479591765262 }, "geometry": { "type": "Point", "coordinates": [ 126.718720130925661, 37.598479591765262 ] } },
{ "type": "Feature", "properties": { "field1": "경기도 김포시 승가로 89", "field2": "삼성아파트경로당", "field3": "특정계층이용시설-회원이용시설", "field4": "11:00 ~ 18:00 (월-일)", "field5": null, "field6": "특정인 이용가능", "_GC_TYPE": "정", "_CLEANADDR": "경기도 김포시 승가로 89 (풍무동)", "_PNU": 4157010700107400000, "_X": 126.70926979283301, "_Y": 37.606176790342843 }, "geometry": { "type": "Point", "coordinates": [ 126.709269792833013, 37.606176790342843 ] } },
{ "type": "Feature", "properties": { "field1": "경기도 김포시 유현로 51", "field2": "현대프라임빌경로당", "field3": "특정계층이용시설-회원이용시설", "field4": "12:00 ~ 17:00 (월-일)", "field5": null, "field6": "특정인 이용가능", "_GC_TYPE": "정", "_CLEANADDR": "경기도 김포시 유현로 51 (풍무동)", "_PNU": 4157010700107590000, "_X": 126.72916606368342, "_Y": 37.598714600139083 }, "geometry": { "type": "Point", "coordinates": [ 126.729166063683422, 37.598714600139083 ] } },
{ "type": "Feature", "properties": { "field1": "경기도 김포시 풍무로96번길 42", "field2": "자이아파트1단지경로당", "field3": "특정계층이용시설-회원이용시설", "field4": "10:00 ~ 17:00 (월-일)", "field5": null, "field6": "특정인 이용가능", "_GC_TYPE": "정", "_CLEANADDR": "경기도 김포시 풍무로96번길 42 (풍무동)", "_PNU": 4157010700107640000, "_X": 126.72425042016761, "_Y": 37.603750441052725 }, "geometry": { "type": "Point", "coordinates": [ 126.724250420167607, 37.603750441052725 ] } },
{ "type": "Feature", "properties": { "field1": "경기도 김포시 풍무로96번길 100", "field2": "자이아파트2단지경로당", "field3": "특정계층이용시설-회원이용시설", "field4": "10:00 ~ 17:00 (월-일)", "field5": null, "field6": "특정인 이용가능", "_GC_TYPE": "정", "_CLEANADDR": "경기도 김포시 풍무로96번길 100 (풍무동)", "_PNU": 4157010700107660000, "_X": 126.72845750219449, "_Y": 37.60321386392765 }, "geometry": { "type": "Point", "coordinates": [ 126.728457502194487, 37.60321386392765 ] } },
{ "type": "Feature", "properties": { "field1": "경기도 김포시 풍무로68번길 41", "field2": "한화유로메트로2단지경로당", "field3": "특정계층이용시설-회원이용시설", "field4": "11:00 ~ 17:00 (월-일)", "field5": null, "field6": "특정인 이용가능", "_GC_TYPE": "정", "_CLEANADDR": "경기도 김포시 풍무로68번길 41 (풍무동)", "_PNU": 4157010700107750000, "_X": 126.72642384866354, "_Y": 37.601867140297713 }, "geometry": { "type": "Point", "coordinates": [ 126.726423848663543, 37.601867140297713 ] } },
{ "type": "Feature", "properties": { "field1": "경기도 김포시 풍무로68번길 78", "field2": "꿈에그린더 포레듀 5단지 경로당", "field3": "특정계층이용시설-회원이용시설", "field4": "09:00 ~ 18:00 (월-일)", "field5": null, "field6": "특정인 이용가능", "_GC_TYPE": "정", "_CLEANADDR": "경기도 김포시 풍무로68번길 78 (풍무동)", "_PNU": 4157010700107840000, "_X": 126.72994704881791, "_Y": 37.600404310855716 }, "geometry": { "type": "Point", "coordinates": [ 126.729947048817905, 37.600404310855716 ] } },
{ "type": "Feature", "properties": { "field1": "경기도 김포시 유현로 200", "field2": "풍무푸르지오아파트경로당", "field3": "특정계층이용시설-회원이용시설", "field4": "12:00 ~ 18:00 (월-일)", "field5": null, "field6": "특정인 이용가능", "_GC_TYPE": "정", "_CLEANADDR": "경기도 김포시 유현로 200 (풍무동)", "_PNU": 4157010700110600000, "_X": 126.73328513962062, "_Y": 37.608503022837361 }, "geometry": { "type": "Point", "coordinates": [ 126.733285139620619, 37.608503022837361 ] } },
{ "type": "Feature", "properties": { "field1": "경기도 김포시 유현로 215", "field2": "풍무센트럴푸르지오아파트경로당", "field3": "특정계층이용시설-회원이용시설", "field4": "10:00 ~ 17:00 (월-일)", "field5": null, "field6": "특정인 이용가능", "_GC_TYPE": "정", "_CLEANADDR": "경기도 김포시 유현로 215 (풍무동)", "_PNU": 4157010700109360000, "_X": 126.72903219872416, "_Y": 37.609562738684602 }, "geometry": { "type": "Point", "coordinates": [ 126.729032198724155, 37.609562738684602 ] } },
{ "type": "Feature", "properties": { "field1": "경기도 김포시 풍무로69번길 51", "field2": "월드메르디앙경로당", "field3": "특정계층이용시설-회원이용시설", "field4": "09:00 ~ 17:00 (월-일)", "field5": null, "field6": "특정인 이용가능", "_GC_TYPE": "정", "_CLEANADDR": "경기도 김포시 풍무로69번길 51 (풍무동)", "_PNU": 4157010700107480000, "_X": 126.71776159566136, "_Y": 37.601399800967386 }, "geometry": { "type": "Point", "coordinates": [ 126.717761595661358, 37.601399800967386 ] } },
{ "type": "Feature", "properties": { "field1": "경기도 김포시 풍무로 41-22", "field2": "풍무5통경로당", "field3": "특정계층이용시설-회원이용시설", "field4": "12:00 ~ 17:00 (월-일)", "field5": null, "field6": "특정인 이용가능", "_GC_TYPE": "정", "_CLEANADDR": "경기도 김포시 풍무로 41-22 (풍무동)", "_PNU": 4157010700106220002, "_X": 126.71996355974613, "_Y": 37.600370129292145 }, "geometry": { "type": "Point", "coordinates": [ 126.719963559746134, 37.600370129292145 ] } },
{ "type": "Feature", "properties": { "field1": "경기도 김포시 풍무로 36", "field2": "범양아파트경로당", "field3": "특정계층이용시설-회원이용시설", "field4": "13:00 ~ 17:00 (월-일)", "field5": null, "field6": "특정인 이용가능", "_GC_TYPE": "정", "_CLEANADDR": "경기도 김포시 풍무로 36 (풍무동)", "_PNU": 4157010700105980008, "_X": 126.72225389097589, "_Y": 37.598982132528818 }, "geometry": { "type": "Point", "coordinates": [ 126.722253890975892, 37.598982132528818 ] } },
{ "type": "Feature", "properties": { "field1": "경기도 김포시 풍무로131번길 10", "field2": "수행경로당", "field3": "특정계층이용시설-회원이용시설", "field4": "09:00 ~ 17:00 (월-일)", "field5": null, "field6": "특정인 이용가능", "_GC_TYPE": "정", "_CLEANADDR": "경기도 김포시 풍무로131번길 10 (풍무동)", "_PNU": 4157010700100650005, "_X": 126.72258365406543, "_Y": 37.607818227687233 }, "geometry": { "type": "Point", "coordinates": [ 126.722583654065431, 37.607818227687233 ] } },
{ "type": "Feature", "properties": { "field1": "경기도 김포시 풍무로 113", "field2": "신안아파트경로당", "field3": "특정계층이용시설-회원이용시설", "field4": "10:00 ~ 18:00 (월-일)", "field5": null, "field6": "특정인 이용가능", "_GC_TYPE": "정", "_CLEANADDR": "경기도 김포시 풍무로 113 (풍무동)", "_PNU": 4157010700101000000, "_X": 126.72103013649016, "_Y": 37.605417961058073 }, "geometry": { "type": "Point", "coordinates": [ 126.721030136490157, 37.605417961058073 ] } },
{ "type": "Feature", "properties": { "field1": "경기도 김포시 장릉로 56", "field2": "길훈1차경로당", "field3": "특정계층이용시설-회원이용시설", "field4": "13:00 ~ 17:00 (월-일)", "field5": null, "field6": "특정인 이용가능", "_GC_TYPE": "정", "_CLEANADDR": "경기도 김포시 장릉로 56 (풍무동)", "_PNU": 4157010700100010000, "_X": 126.71962613969093, "_Y": 37.612985251693665 }, "geometry": { "type": "Point", "coordinates": [ 126.719626139690931, 37.612985251693665 ] } },
{ "type": "Feature", "properties": { "field1": "경기도 김포시 풍무로93번길 30", "field2": "대림아파트경로당", "field3": "특정계층이용시설-회원이용시설", "field4": "09:00 ~ 17:00 (월-일)", "field5": null, "field6": "특정인 이용가능", "_GC_TYPE": "정", "_CLEANADDR": "경기도 김포시 풍무로93번길 30 (풍무동)", "_PNU": 4157010700107570000, "_X": 126.72043915578789, "_Y": 37.604735500709083 }, "geometry": { "type": "Point", "coordinates": [ 126.720439155787886, 37.604735500709083 ] } },
{ "type": "Feature", "properties": { "field1": "경기도 김포시 풍무로 96", "field2": "삼용아파트경로당", "field3": "특정계층이용시설-회원이용시설", "field4": "11:00 ~ 17:00 (월-일)", "field5": null, "field6": "특정인 이용가능", "_GC_TYPE": "정", "_CLEANADDR": "경기도 김포시 풍무로 96 (풍무동)", "_PNU": 4157010700104490002, "_X": 126.72243097627596, "_Y": 37.604068918699951 }, "geometry": { "type": "Point", "coordinates": [ 126.722430976275959, 37.604068918699951 ] } },
{ "type": "Feature", "properties": { "field1": "경기도 김포시 풍무로146번길 101", "field2": "풍무도서관", "field3": "공공시설-복지·문화·체육시설", "field4": "09:00 ~ 22:00 (화-금)", "field5": null, "field6": "누구나 이용가능", "_GC_TYPE": "정", "_CLEANADDR": "경기도 김포시 풍무로146번길 101 (풍무동)", "_PNU": 4157010700109410000, "_X": 126.72914899268486, "_Y": 37.607616211236163 }, "geometry": { "type": "Point", "coordinates": [ 126.729148992684856, 37.607616211236163 ] } },
{ "type": "Feature", "properties": { "field1": "경기도 김포시 풍무로 74", "field2": "풍무동행정복지센터", "field3": "공공시설-공공청사", "field4": "09:00 ~ 18:00 (월-금)", "field5": null, "field6": "누구나 이용가능", "_GC_TYPE": "정", "_CLEANADDR": "경기도 김포시 풍무로 74 (풍무동)", "_PNU": 4157010700108040000, "_X": 126.72203518948086, "_Y": 37.602151103935611 }, "geometry": { "type": "Point", "coordinates": [ 126.722035189480863, 37.602151103935611 ] } },
{ "type": "Feature", "properties": { "field1": "경기도 김포시 김포한강2로 112", "field2": "장기동행정복지센터", "field3": "공공시설-공공청사", "field4": "09:00 ~ 18:00 (월-금)", "field5": null, "field6": "누구나 이용가능", "_GC_TYPE": "정", "_CLEANADDR": "경기도 김포시 김포한강2로 112 (장기동)", "_PNU": 4157010400120550002, "_X": 126.67133782534987, "_Y": 37.639730678093159 }, "geometry": { "type": "Point", "coordinates": [ 126.671337825349866, 37.639730678093159 ] } },
{ "type": "Feature", "properties": { "field1": "경기도 김포시 김포한강2로 42", "field2": "장기도서관", "field3": "공공시설-복지·문화·체육시설", "field4": "09:00 ~ 22:00 (월-목)", "field5": null, "field6": "누구나 이용가능", "_GC_TYPE": "정", "_CLEANADDR": "경기도 김포시 김포한강2로 42 (장기동)", "_PNU": 4157010400120010001, "_X": 126.67654171045281, "_Y": 37.641795740680216 }, "geometry": { "type": "Point", "coordinates": [ 126.67654171045281, 37.641795740680216 ] } },
{ "type": "Feature", "properties": { "field1": "경기도 김포시 옹주물로 91-12", "field2": "외옹경로당", "field3": "특정계층이용시설-회원이용시설", "field4": "13:00 ~ 17:00 (월-일)", "field5": null, "field6": "특정인 이용가능", "_GC_TYPE": "정", "_CLEANADDR": "경기도 김포시 옹주물로 91-12 (감정동)", "_PNU": 4157010500101530001, "_X": 126.68456606454363, "_Y": 37.632051597454584 }, "geometry": { "type": "Point", "coordinates": [ 126.684566064543631, 37.632051597454584 ] } },
{ "type": "Feature", "properties": { "field1": "경기도 김포시 옹주물로 21", "field2": "장기경로당", "field3": "특정계층이용시설-회원이용시설", "field4": "10:00 ~ 17:00 (월-일)", "field5": null, "field6": "특정인 이용가능", "_GC_TYPE": "정", "_CLEANADDR": "경기도 김포시 옹주물로 21 (장기동)", "_PNU": 4157010400108490001, "_X": 126.6881599871168, "_Y": 37.637101997727804 }, "geometry": { "type": "Point", "coordinates": [ 126.688159987116805, 37.637101997727804 ] } },
{ "type": "Feature", "properties": { "field1": "경기도 김포시 김포한강2로 144", "field2": "초당마을주공아파트경로당", "field3": "특정계층이용시설-회원이용시설", "field4": "10:00 ~ 18:00 (월-일)", "field5": null, "field6": "특정인 이용가능", "_GC_TYPE": "정", "_CLEANADDR": "경기도 김포시 김포한강2로 144 (장기동)", "_PNU": 4157010400115980000, "_X": 126.66845257221586, "_Y": 37.641910435444736 }, "geometry": { "type": "Point", "coordinates": [ 126.668452572215855, 37.641910435444736 ] } },
{ "type": "Feature", "properties": { "field1": "경기도 김포시 김포한강9로115번길 25", "field2": "구래동행정복지센터", "field3": "공공시설-공공청사", "field4": "09:00 ~ 18:00 (월-금)", "field5": null, "field6": "누구나 이용가능", "_GC_TYPE": "정", "_CLEANADDR": "경기도 김포시 김포한강9로115번길 25 (구래동)", "_PNU": 4157010900168720005, "_X": 126.62368060653981, "_Y": 37.646490682735362 }, "geometry": { "type": "Point", "coordinates": [ 126.623680606539807, 37.646490682735362 ] } },
{ "type": "Feature", "properties": { "field1": "경기도 김포시 김포한강5로 417", "field2": "한가람우미린아파트경로당", "field3": "특정계층이용시설-회원이용시설", "field4": "11:00 ~ 17:00 (월-일)", "field5": null, "field6": "특정인 이용가능", "_GC_TYPE": "정", "_CLEANADDR": "경기도 김포시 김포한강5로 417 (구래동)", "_PNU": 4157010900168730008, "_X": 126.62524343611838, "_Y": 37.648848067565396 }, "geometry": { "type": "Point", "coordinates": [ 126.625243436118382, 37.648848067565396 ] } },
{ "type": "Feature", "properties": { "field1": "경기도 김포시 솔터로 22", "field2": "메트로타워예미지경로당", "field3": "특정계층이용시설-회원이용시설", "field4": "13:00 ~ 17:00 (월-일)", "field5": null, "field6": "특정인 이용가능", "_GC_TYPE": "정", "_CLEANADDR": "경기도 김포시 솔터로 22 (구래동)", "_PNU": 4157010900168860004, "_X": 126.63042661955049, "_Y": 37.64553770324828 }, "geometry": { "type": "Point", "coordinates": [ 126.630426619550491, 37.64553770324828 ] } },
{ "type": "Feature", "properties": { "field1": "경기도 김포시 김포한강8로 409", "field2": "한강신도시3차푸르지오아파트경로당", "field3": "특정계층이용시설-회원이용시설", "field4": "13:00 ~ 17:00 (월-일)", "field5": null, "field6": "특정인 이용가능", "_GC_TYPE": "정", "_CLEANADDR": "경기도 김포시 김포한강8로 409 (구래동)", "_PNU": 4157010900168950002, "_X": 126.62307537662552, "_Y": 37.642040945759071 }, "geometry": { "type": "Point", "coordinates": [ 126.623075376625522, 37.642040945759071 ] } },
{ "type": "Feature", "properties": { "field1": "경기도 김포시 김포한강4로420번길 163", "field2": "LH호수마을5단지경로당", "field3": "특정계층이용시설-회원이용시설", "field4": "11:00 ~ 17:00 (월-일)", "field5": null, "field6": "특정인 이용가능", "_GC_TYPE": "정", "_CLEANADDR": "경기도 김포시 김포한강4로420번길 163 (구래동)", "_PNU": 4157010900168750009, "_X": 126.63247590140989, "_Y": 37.648724750670929 }, "geometry": { "type": "Point", "coordinates": [ 126.63247590140989, 37.648724750670929 ] } },
{ "type": "Feature", "properties": { "field1": "경기도 김포시 김포한강4로 487", "field2": "반도유보라4차경로당", "field3": "특정계층이용시설-회원이용시설", "field4": "11:00 ~ 17:00 (월-일)", "field5": null, "field6": "특정인 이용가능", "_GC_TYPE": "정", "_CLEANADDR": "경기도 김포시 김포한강4로 487 (구래동)", "_PNU": 4157010900168860006, "_X": 126.62958710650172, "_Y": 37.646399624663999 }, "geometry": { "type": "Point", "coordinates": [ 126.629587106501717, 37.646399624663999 ] } },
{ "type": "Feature", "properties": { "field1": "경기도 김포시 김포한강9로 116", "field2": "반도유보라5차경로당", "field3": "특정계층이용시설-회원이용시설", "field4": "13:00 ~ 17:00 (월-일)", "field5": null, "field6": "특정인 이용가능", "_GC_TYPE": "정", "_CLEANADDR": "경기도 김포시 김포한강9로 116 (구래동)", "_PNU": 4157010900168730019, "_X": 126.62590903362812, "_Y": 37.647467554898363 }, "geometry": { "type": "Point", "coordinates": [ 126.625909033628119, 37.647467554898363 ] } },
{ "type": "Feature", "properties": { "field1": "경기도 김포시 김포한강9로 11", "field2": "김포한강예미지아파트경로당", "field3": "특정계층이용시설-회원이용시설", "field4": "13:00 ~ 17:00 (월-일)", "field5": null, "field6": "특정인 이용가능", "_GC_TYPE": "정", "_CLEANADDR": "경기도 김포시 김포한강9로 11 (구래동)", "_PNU": 4157010900168930002, "_X": 126.62293337409054, "_Y": 37.637967396071666 }, "geometry": { "type": "Point", "coordinates": [ 126.622933374090536, 37.637967396071666 ] } },
{ "type": "Feature", "properties": { "field1": "경기도 김포시 김포한강4로 564", "field2": "김포한강한가람LH2단지경로당", "field3": "특정계층이용시설-회원이용시설", "field4": "11:00 ~ 17:00 (월-일)", "field5": null, "field6": "특정인 이용가능", "_GC_TYPE": "정", "_CLEANADDR": "경기도 김포시 김포한강4로 564 (구래동)", "_PNU": 4157010900168720002, "_X": 126.62152387717879, "_Y": 37.646283324634808 }, "geometry": { "type": "Point", "coordinates": [ 126.621523877178788, 37.646283324634808 ] } },
{ "type": "Feature", "properties": { "field1": "경기도 김포시 김포한강10로134번길 77", "field2": "김포한강나비마을3단지경로당", "field3": "특정계층이용시설-회원이용시설", "field4": "13:00 ~ 17:00 (월-일)", "field5": null, "field6": "특정인 이용가능", "_GC_TYPE": "정", "_CLEANADDR": "경기도 김포시 김포한강10로134번길 77 (구래동)", "_PNU": 4157010900168950004, "_X": 126.62465303095472, "_Y": 37.642516996016191 }, "geometry": { "type": "Point", "coordinates": [ 126.624653030954718, 37.642516996016191 ] } },
{ "type": "Feature", "properties": { "field1": "경기도 김포시 김포한강5로 385", "field2": "자연앤e편한세상경로당", "field3": "특정계층이용시설-회원이용시설", "field4": "11:00 ~ 17:00 (월-일)", "field5": null, "field6": "특정인 이용가능", "_GC_TYPE": "정", "_CLEANADDR": "경기도 김포시 김포한강5로 385 (구래동)", "_PNU": 4157010900168740017, "_X": 126.62849604535722, "_Y": 37.648857647749928 }, "geometry": { "type": "Point", "coordinates": [ 126.628496045357224, 37.648857647749928 ] } },
{ "type": "Feature", "properties": { "field1": "경기도 김포시 김포한강4로 471", "field2": "호반베르디움더레이크2차아파트경로당", "field3": "특정계층이용시설-회원이용시설", "field4": "11:00 ~ 17:00 (월-일)", "field5": null, "field6": "특정인 이용가능", "_GC_TYPE": "정", "_CLEANADDR": "경기도 김포시 김포한강4로 471 (구래동)", "_PNU": 4157010900168870001, "_X": 126.63298621156035, "_Y": 37.647273035663346 }, "geometry": { "type": "Point", "coordinates": [ 126.63298621156035, 37.647273035663346 ] } },
{ "type": "Feature", "properties": { "field1": "경기도 김포시 김포한강4로420번길 100", "field2": "구래동김포한강아이파크경로당", "field3": "특정계층이용시설-회원이용시설", "field4": "11:00 ~ 17:00 (월-일)", "field5": null, "field6": "특정인 이용가능", "_GC_TYPE": "정", "_CLEANADDR": "경기도 김포시 김포한강4로420번길 100 (구래동)", "_PNU": 4157010900168740020, "_X": 126.63095777741873, "_Y": 37.651427940731082 }, "geometry": { "type": "Point", "coordinates": [ 126.630957777418729, 37.651427940731082 ] } },
{ "type": "Feature", "properties": { "field1": "경기도 김포시 김포한강8로 365", "field2": "구래역화성파크드림경로당", "field3": "특정계층이용시설-회원이용시설", "field4": "13:00 ~ 17:00 (월-일)", "field5": null, "field6": "특정인 이용가능", "_GC_TYPE": "정", "_CLEANADDR": "경기도 김포시 김포한강8로 365 (구래동)", "_PNU": 4157010900168880004, "_X": 126.62905806764839, "_Y": 37.641664441032226 }, "geometry": { "type": "Point", "coordinates": [ 126.629058067648387, 37.641664441032226 ] } },
{ "type": "Feature", "properties": { "field1": "경기도 김포시 김포한강9로115번길 37", "field2": "김포한강데세리브경로당", "field3": "특정계층이용시설-회원이용시설", "field4": "13:00 ~ 17:00 (월-일)", "field5": null, "field6": "특정인 이용가능", "_GC_TYPE": "정", "_CLEANADDR": "경기도 김포시 김포한강9로115번길 37 (구래동)", "_PNU": 4157010900168720008, "_X": 126.62270387750922, "_Y": 37.646055250556223 }, "geometry": { "type": "Point", "coordinates": [ 126.622703877509224, 37.646055250556223 ] } },
{ "type": "Feature", "properties": { "field1": "경기도 김포시 김포한강4로420번길 164", "field2": "자연앤e편한세상3단지아파트경로당", "field3": "특정계층이용시설-회원이용시설", "field4": "11:00 ~ 17:00 (월-일)", "field5": null, "field6": "특정인 이용가능", "_GC_TYPE": "정", "_CLEANADDR": "경기도 김포시 김포한강4로420번길 164 (구래동)", "_PNU": 4157010900168740006, "_X": 126.62894284648557, "_Y": 37.647377481416186 }, "geometry": { "type": "Point", "coordinates": [ 126.628942846485572, 37.647377481416186 ] } },
{ "type": "Feature", "properties": { "field1": "경기도 김포시 김포한강8로 377", "field2": "나비마을리슈빌아파트경로당", "field3": "특정계층이용시설-회원이용시설", "field4": "13:00 ~ 17:00 (월-일)", "field5": null, "field6": "특정인 이용가능", "_GC_TYPE": "정", "_CLEANADDR": "경기도 김포시 김포한강8로 377 (구래동)", "_PNU": 4157010900168880002, "_X": 126.62770711472169, "_Y": 37.641499862666649 }, "geometry": { "type": "Point", "coordinates": [ 126.627707114721687, 37.641499862666649 ] } },
{ "type": "Feature", "properties": { "field1": "경기도 김포시 김포한강8로 331", "field2": "솔터마을2단지경로당", "field3": "특정계층이용시설-회원이용시설", "field4": "13:00 ~ 17:00 (월-일)", "field5": null, "field6": "특정인 이용가능", "_GC_TYPE": "정", "_CLEANADDR": "경기도 김포시 김포한강8로 331 (마산동)", "_PNU": 4157010800106150001, "_X": 126.63286193345763, "_Y": 37.643591927417781 }, "geometry": { "type": "Point", "coordinates": [ 126.632861933457633, 37.643591927417781 ] } },
{ "type": "Feature", "properties": { "field1": "경기도 김포시 김포한강8로 333", "field2": "솔터마을3단지경로당", "field3": "특정계층이용시설-회원이용시설", "field4": "13:00 ~ 17:00 (월-일)", "field5": null, "field6": "특정인 이용가능", "_GC_TYPE": "정", "_CLEANADDR": "경기도 김포시 김포한강8로 333 (마산동)", "_PNU": 4157010800106140010, "_X": 126.63169822760715, "_Y": 37.643334077762198 }, "geometry": { "type": "Point", "coordinates": [ 126.631698227607146, 37.643334077762198 ] } },
{ "type": "Feature", "properties": { "field1": "경기도 김포시 김포한강7로22번길 174-6", "field2": "마산도서관", "field3": "공공시설-복지·문화·체육시설", "field4": "09:00 ~ 22:00 (화-금)", "field5": null, "field6": "누구나 이용가능", "_GC_TYPE": "정", "_CLEANADDR": "경기도 김포시 김포한강7로22번길 174-6 (마산동)", "_PNU": 4157010800106340001, "_X": 126.63974486723372, "_Y": 37.642424985220885 }, "geometry": { "type": "Point", "coordinates": [ 126.639744867233716, 37.642424985220885 ] } },
{ "type": "Feature", "properties": { "field1": "경기도 김포시 김포한강8로 246", "field2": "마산동행정복지센터", "field3": "공공시설-공공청사", "field4": "09:00 ~ 18:00 (월-금)", "field5": null, "field6": "누구나 이용가능", "_GC_TYPE": "정", "_CLEANADDR": "경기도 김포시 김포한강8로 246 (마산동)", "_PNU": 4157010800106190001, "_X": 126.64128536762108, "_Y": 37.643649117616761 }, "geometry": { "type": "Point", "coordinates": [ 126.64128536762108, 37.643649117616761 ] } },
{ "type": "Feature", "properties": { "field1": "경기도 김포시 전원로38번길 86", "field2": "전원마을3단지경로당", "field3": "특정계층이용시설-회원이용시설", "field4": "13:00 ~ 17:00 (월-일)", "field5": null, "field6": "특정인 이용가능", "_GC_TYPE": "정", "_CLEANADDR": "경기도 김포시 전원로38번길 86 (운양동)", "_PNU": 4157010300114390000, "_X": 126.68803998214568, "_Y": 37.644868552795458 }, "geometry": { "type": "Point", "coordinates": [ 126.688039982145682, 37.644868552795458 ] } },
{ "type": "Feature", "properties": { "field1": "경기도 김포시 모담공원로 32", "field2": "운양동행정복지센터", "field3": "공공시설-공공청사", "field4": "09:00 ~ 18:00 (월-금)", "field5": null, "field6": "누구나 이용가능", "_GC_TYPE": "정", "_CLEANADDR": "경기도 김포시 모담공원로 32 (운양동)", "_PNU": 4157010300113260001, "_X": 126.68324999261776, "_Y": 37.651436522764975 }, "geometry": { "type": "Point", "coordinates": [ 126.68324999261776, 37.651436522764975 ] } },
{ "type": "Feature", "properties": { "field1": "경기도 김포시 김포대로1518번길 30", "field2": "발산마을회관", "field3": "공공시설-복지·문화·체육시설", "field4": "13:00 ~ 17:00 (월-일)", "field5": null, "field6": "누구나 이용가능", "_GC_TYPE": "정", "_CLEANADDR": "경기도 김포시 김포대로1518번길 30 (운양동)", "_PNU": 4157010300111390009, "_X": 126.66762018009752, "_Y": 37.660215655317785 }, "geometry": { "type": "Point", "coordinates": [ 126.667620180097515, 37.660215655317785 ] } },
{ "type": "Feature", "properties": { "field1": "경기도 김포시 모담공원로 118", "field2": "모담도서관", "field3": "공공시설-복지·문화·체육시설", "field4": "09:00 ~ 22:00 (화-금)", "field5": null, "field6": "누구나 이용가능", "_GC_TYPE": "정", "_CLEANADDR": "경기도 김포시 모담공원로 118 (운양동)", "_PNU": 4157010300113250001, "_X": 126.69199231064704, "_Y": 37.649818417751398 }, "geometry": { "type": "Point", "coordinates": [ 126.691992310647038, 37.649818417751398 ] } },
{ "type": "Feature", "properties": { "field1": "경기도 김포시 운양로 174", "field2": "성창아파트경로당", "field3": "특정계층이용시설-회원이용시설", "field4": "13:00 ~ 17:00 (월-일)", "field5": null, "field6": "특정인 이용가능", "_GC_TYPE": "정", "_CLEANADDR": "경기도 김포시 운양로 174 (운양동)", "_PNU": 4157010300109990002, "_X": 126.67396301159376, "_Y": 37.655039860968188 }, "geometry": { "type": "Point", "coordinates": [ 126.673963011593756, 37.655039860968188 ] } },
{ "type": "Feature", "properties": { "field1": "경기도 김포시 운양로63번길 2", "field2": "대촌경로당", "field3": "특정계층이용시설-회원이용시설", "field4": "13:00 ~ 17:00 (월-일)", "field5": null, "field6": "특정인 이용가능", "_GC_TYPE": "정", "_CLEANADDR": "경기도 김포시 운양로63번길 2 (운양동)", "_PNU": 4157010300109410001, "_X": 126.67322999718101, "_Y": 37.660957856143376 }, "geometry": { "type": "Point", "coordinates": [ 126.673229997181011, 37.660957856143376 ] } },
{ "type": "Feature", "properties": { "field1": "경기도 김포시 운양로 88-4", "field2": "제촌경로당", "field3": "특정계층이용시설-회원이용시설", "field4": "13:00 ~ 17:00 (월-일)", "field5": null, "field6": "특정인 이용가능", "_GC_TYPE": "정", "_CLEANADDR": "경기도 김포시 운양로 88-4 (운양동)", "_PNU": 4157010300107890001, "_X": 126.67555418928632, "_Y": 37.659531540725361 }, "geometry": { "type": "Point", "coordinates": [ 126.675554189286316, 37.659531540725361 ] } },
{ "type": "Feature", "properties": { "field1": "경기도 김포시 김포한강11로 158", "field2": "전원마을4단지경로당", "field3": "특정계층이용시설-회원이용시설", "field4": "13:00 ~ 17:00 (월-일)", "field5": null, "field6": "특정인 이용가능", "_GC_TYPE": "정", "_CLEANADDR": "경기도 김포시 김포한강11로 158 (운양동)", "_PNU": 4157010300114340000, "_X": 126.68011463895834, "_Y": 37.647410762032521 }, "geometry": { "type": "Point", "coordinates": [ 126.680114638958344, 37.647410762032521 ] } },
{ "type": "Feature", "properties": { "field1": "경기도 김포시 전원로 24", "field2": "전원마을1단지경로당", "field3": "특정계층이용시설-회원이용시설", "field4": "13:00 ~ 17:00 (월-일)", "field5": null, "field6": "특정인 이용가능", "_GC_TYPE": "정", "_CLEANADDR": "경기도 김포시 전원로 24 (운양동)", "_PNU": 4157010300114380000, "_X": 126.68268810233266, "_Y": 37.64604113634995 }, "geometry": { "type": "Point", "coordinates": [ 126.682688102332662, 37.64604113634995 ] } },
{ "type": "Feature", "properties": { "field1": "경기도 김포시 전원로 44", "field2": "전원마을2단지경로당", "field3": "특정계층이용시설-회원이용시설", "field4": "13:00 ~ 17:00 (월-일)", "field5": null, "field6": "특정인 이용가능", "_GC_TYPE": "정", "_CLEANADDR": "경기도 김포시 전원로 44 (운양동)", "_PNU": 4157010300114350000, "_X": 126.68540982617388, "_Y": 37.647773017512904 }, "geometry": { "type": "Point", "coordinates": [ 126.685409826173881, 37.647773017512904 ] } }
]
}
