{
"type": "FeatureCollection",
"name": "cool",
"crs": { "type": "name", "properties": { "name": "urn:ogc:def:crs:OGC:1.3:CRS84" } },
"features": [
{ "type": "Feature", "properties": { "주소": "경기도 김포시 통진읍 김포대로 2093-20", "시설명": "도사6리경로당", "시설구분": "특정계층이용시설-회원이용시설", "이용가능시간(기본)": "13:00 ~ 17:00 (월-일)", "이용가능시간(추가/주말)": null, "이용구분": "특정인 이용가능", "Latitude": 37.6974115, "Longitude": 126.5898305 }, "geometry": { "type": "Point", "coordinates": [ 126.5898305, 37.6974115 ] } },
{ "type": "Feature", "properties": { "주소": "경기도 김포시 통진읍 조강로 132", "시설명": "통진도서관", "시설구분": "공공시설-복지·문화·체육시설", "이용가능시간(기본)": "09:00 ~ 22:00 (월", "이용가능시간(추가/주말)": null, "이용구분": "누구나 이용가능", "Latitude": 37.6859331, "Longitude": 126.6083063 }, "geometry": { "type": "Point", "coordinates": [ 126.6083063, 37.6859331 ] } },
{ "type": "Feature", "properties": { "주소": "경기도 김포시 통진읍 소서명로 31", "시설명": "서암2리경로당", "시설구분": "특정계층이용시설-회원이용시설", "이용가능시간(기본)": "09:00 ~ 17:00 (월-일)", "이용가능시간(추가/주말)": null, "이용구분": "특정인 이용가능", "Latitude": 37.6883204, "Longitude": 126.6015525 }, "geometry": { "type": "Point", "coordinates": [ 126.6015525, 37.6883204 ] } },
{ "type": "Feature", "properties": { "주소": "경기도 김포시 통진읍 김포대로1938번길 60", "시설명": "수참2리경로당", "시설구분": "특정계층이용시설-회원이용시설", "이용가능시간(기본)": "13:00 ~ 17:00 (월-일)", "이용가능시간(추가/주말)": null, "이용구분": "특정인 이용가능", "Latitude": 37.6749942, "Longitude": 126.5925 }, "geometry": { "type": "Point", "coordinates": [ 126.5925, 37.6749942 ] } },
{ "type": "Feature", "properties": { "주소": "경기도 김포시 통진읍 하성로102번길 20-1", "시설명": "수참1리경로당", "시설구분": "특정계층이용시설-회원이용시설", "이용가능시간(기본)": "13:00 ~ 17:00 (월-일)", "이용가능시간(추가/주말)": null, "이용구분": "특정인 이용가능", "Latitude": 37.6780962, "Longitude": 126.6026573 }, "geometry": { "type": "Point", "coordinates": [ 126.6026573, 37.6780962 ] } },
{ "type": "Feature", "properties": { "주소": "경기도 김포시 통진읍 마송1로16번길 18-41", "시설명": "가현5리경로당", "시설구분": "특정계층이용시설-회원이용시설", "이용가능시간(기본)": "09:00 ~ 17:00 (월-일)", "이용가능시간(추가/주말)": null, "이용구분": "특정인 이용가능", "Latitude": 37.68412, "Longitude": 126.61905 }, "geometry": { "type": "Point", "coordinates": [ 126.61905, 37.68412 ] } },
{ "type": "Feature", "properties": { "주소": "경기도 김포시 통진읍 가현로105번길 54", "시설명": "가현4리경로당", "시설구분": "특정계층이용시설-회원이용시설", "이용가능시간(기본)": "13:00 ~ 17:00 (월-일)", "이용가능시간(추가/주말)": null, "이용구분": "특정인 이용가능", "Latitude": 37.68855, "Longitude": 126.62102 }, "geometry": { "type": "Point", "coordinates": [ 126.62102, 37.68855 ] } },
{ "type": "Feature", "properties": { "주소": "경기도 김포시 통진읍 가현로 240", "시설명": "가현2리경로당", "시설구분": "특정계층이용시설-회원이용시설", "이용가능시간(기본)": "09:00 ~ 17:00 (월-일)", "이용가능시간(추가/주말)": null, "이용구분": "특정인 이용가능", "Latitude": 37.69634, "Longitude": 126.6231 }, "geometry": { "type": "Point", "coordinates": [ 126.6231, 37.69634 ] } },
{ "type": "Feature", "properties": { "주소": "경기도 김포시 통진읍 동을산로133번길 36", "시설명": "동을산리경로당", "시설구분": "특정계층이용시설-회원이용시설", "이용가능시간(기본)": "13:00 ~ 17:00 (월-일)", "이용가능시간(추가/주말)": null, "이용구분": "특정인 이용가능", "Latitude": 37.71212, "Longitude": 126.6254 }, "geometry": { "type": "Point", "coordinates": [ 126.6254, 37.71212 ] } },
{ "type": "Feature", "properties": { "주소": "경기도 김포시 통진읍 동을산로 130", "시설명": "동을산2리경로당", "시설구분": "특정계층이용시설-회원이용시설", "이용가능시간(기본)": "09:00 ~ 17:00 (월-일)", "이용가능시간(추가/주말)": null, "이용구분": "특정인 이용가능", "Latitude": 37.70885, "Longitude": 126.6245 }, "geometry": { "type": "Point", "coordinates": [ 126.6245, 37.70885 ] } },
{ "type": "Feature", "properties": { "주소": "경기도 김포시 통진읍 월하로 515", "시설명": "귀전2리경로당", "시설구분": "특정계층이용시설-회원이용시설", "이용가능시간(기본)": "13:00 ~ 17:00 (월-일)", "이용가능시간(추가/주말)": null, "이용구분": "특정인 이용가능", "Latitude": 37.72015, "Longitude": 126.61845 }, "geometry": { "type": "Point", "coordinates": [ 126.61845, 37.72015 ] } },
{ "type": "Feature", "properties": { "주소": "경기도 김포시 통진읍 귀전로 116", "시설명": "귀전1리경로당", "시설구분": "특정계층이용시설-회원이용시설", "이용가능시간(기본)": "13:00 ~ 17:00 (월-일)", "이용가능시간(추가/주말)": null, "이용구분": "특정인 이용가능", "Latitude": 37.72511, "Longitude": 126.61523 }, "geometry": { "type": "Point", "coordinates": [ 126.61523, 37.72511 ] } },
{ "type": "Feature", "properties": { "주소": "경기도 김포시 통진읍 고정로218번길 43", "시설명": "고정1리경로당", "시설구분": "특정계층이용시설-회원이용시설", "이용가능시간(기본)": "13:00 ~ 17:00 (월-일)", "이용가능시간(추가/주말)": null, "이용구분": "특정인 이용가능", "Latitude": 37.74231, "Longitude": 126.60512 }, "geometry": { "type": "Point", "coordinates": [ 126.60512, 37.74231 ] } },
{ "type": "Feature", "properties": { "주소": "경기도 김포시 통진읍 고정1로82번길 20-13", "시설명": "고정3리경로당", "시설구분": "특정계층이용시설-회원이용시설", "이용가능시간(기본)": "13:00 ~ 17:00 (월-일)", "이용가능시간(추가/주말)": null, "이용구분": "특정인 이용가능", "Latitude": 37.738541, "Longitude": 126.598541 }, "geometry": { "type": "Point", "coordinates": [ 126.598541, 37.738541 ] } },
{ "type": "Feature", "properties": { "주소": "경기도 김포시 통진읍 월하로301번길 222", "시설명": "고정2리경로당", "시설구분": "특정계층이용시설-회원이용시설", "이용가능시간(기본)": "13:00 ~ 17:00 (월-일)", "이용가능시간(추가/주말)": null, "이용구분": "특정인 이용가능", "Latitude": 37.735412, "Longitude": 126.601245 }, "geometry": { "type": "Point", "coordinates": [ 126.601245, 37.735412 ] } },
{ "type": "Feature", "properties": { "주소": "경기도 김포시 통진읍 옹달샘로 68", "시설명": "옹정3리경로당", "시설구분": "특정계층이용시설-회원이용시설", "이용가능시간(기본)": "09:00 ~ 17:00 (월-일)", "이용가능시간(추가/주말)": null, "이용구분": "특정인 이용가능", "Latitude": 37.718541, "Longitude": 126.592145 }, "geometry": { "type": "Point", "coordinates": [ 126.592145, 37.718541 ] } },
{ "type": "Feature", "properties": { "주소": "경기도 김포시 통진읍 옹정로 146", "시설명": "옹정2리경로당", "시설구분": "특정계층이용시설-회원이용시설", "이용가능시간(기본)": "13:00 ~ 17:00 (월-일)", "이용가능시간(추가/주말)": null, "이용구분": "특정인 이용가능", "Latitude": 37.712451, "Longitude": 126.588541 }, "geometry": { "type": "Point", "coordinates": [ 126.588541, 37.712451 ] } },
{ "type": "Feature", "properties": { "주소": "경기도 김포시 통진읍 소서명로 67", "시설명": "서암1리경로당", "시설구분": "특정계층이용시설-회원이용시설", "이용가능시간(기본)": "13:00 ~ 17:00 (월-일)", "이용가능시간(추가/주말)": null, "이용구분": "특정인 이용가능", "Latitude": 37.692145, "Longitude": 126.604123 }, "geometry": { "type": "Point", "coordinates": [ 126.604123, 37.692145 ] } },
{ "type": "Feature", "properties": { "주소": "경기도 김포시 통진읍 조강로56번길 51-9", "시설명": "통진경로당", "시설구분": "특정계층이용시설-회원이용시설", "이용가능시간(기본)": "13:00 ~ 17:00 (월-일)", "이용가능시간(추가/주말)": null, "이용구분": "특정인 이용가능", "Latitude": 37.682145, "Longitude": 126.606541 }, "geometry": { "type": "Point", "coordinates": [ 126.606541, 37.682145 ] } },
{ "type": "Feature", "properties": { "주소": "경기도 김포시 통진읍 도이곶로37번길 19", "시설명": "도사2리경로당", "시설구분": "특정계층이용시설-회원이용시설", "이용가능시간(기본)": "09:00 ~ 17:00 (월-일)", "이용가능시간(추가/주말)": null, "이용구분": "특정인 이용가능", "Latitude": 37.691245, "Longitude": 126.582145 }, "geometry": { "type": "Point", "coordinates": [ 126.582145, 37.691245 ] } },
{ "type": "Feature", "properties": { "주소": "경기도 김포시 통진읍 김포대로2004번길 89", "시설명": "도사4리경로당", "시설구분": "특정계층이용시설-회원이용시설", "이용가능시간(기본)": "13:00 ~ 17:00 (월-일)", "이용가능시간(추가/주말)": null, "이용구분": "특정인 이용가능", "Latitude": 37.685412, "Longitude": 126.588541 }, "geometry": { "type": "Point", "coordinates": [ 126.588541, 37.685412 ] } },
{ "type": "Feature", "properties": { "주소": "경기도 김포시 통진읍 김포대로 1991", "시설명": "도사7리신일아파트경로당", "시설구분": "특정계층이용시설-회원이용시설", "이용가능시간(기본)": "13:00 ~ 17:00 (월-일)", "이용가능시간(추가/주말)": null, "이용구분": "특정인 이용가능", "Latitude": 37.682451, "Longitude": 126.591245 }, "geometry": { "type": "Point", "coordinates": [ 126.591245, 37.682451 ] } },
{ "type": "Feature", "properties": { "주소": "경기도 김포시 통진읍 흥신로254번길 10-52", "시설명": "도사3리경로당", "시설구분": "특정계층이용시설-회원이용시설", "이용가능시간(기본)": "13:00 ~ 17:00 (월-일)", "이용가능시간(추가/주말)": null, "이용구분": "특정인 이용가능", "Latitude": 37.688541, "Longitude": 126.575412 }, "geometry": { "type": "Point", "coordinates": [ 126.575412, 37.688541 ] } },
{ "type": "Feature", "properties": { "주소": "경기도 김포시 통진읍 율마로450번길 73-26", "시설명": "도사1리경로당", "시설구분": "특정계층이용시설-회원이용시설", "이용가능시간(기본)": "13:00 ~ 17:00 (월-일)", "이용가능시간(추가/주말)": null, "이용구분": "특정인 이용가능", "Latitude": 37.695412, "Longitude": 126.578541 }, "geometry": { "type": "Point", "coordinates": [ 126.578541, 37.695412 ] } },
{ "type": "Feature", "properties": { "주소": "경기도 김포시 통진읍 김포대로1961번길 22-1", "시설명": "도사5리경로당", "시설구분": "특정계층이용시설-회원이용시설", "이용가능시간(기본)": "13:00 ~ 17:00 (월-일)", "이용가능시간(추가/주말)": null, "이용구분": "특정인 이용가능", "Latitude": 37.678541, "Longitude": 126.595412 }, "geometry": { "type": "Point", "coordinates": [ 126.595412, 37.678541 ] } },
{ "type": "Feature", "properties": { "주소": "경기도 김포시 통진읍 마송1로 9", "시설명": "마송LH3단지아파트경로당", "시설구분": "특정계층이용시설-회원이용시설", "이용가능시간(기본)": "13:00 ~ 17:00 (월-일)", "이용가능시간(추가/주말)": null, "이용구분": "특정인 이용가능", "Latitude": 37.681245, "Longitude": 126.612451 }, "geometry": { "type": "Point", "coordinates": [ 126.612451, 37.681245 ] } },
{ "type": "Feature", "properties": { "주소": "경기도 김포시 통진읍 마송1로 77", "시설명": "통진읍행정복지센터", "시설구분": "공공시설-공공청사", "이용가능시간(기본)": "09:00 ~ 18:00 (월-금)", "이용가능시간(추가/주말)": null, "이용구분": "누구나 이용가능", "Latitude": 37.685121, "Longitude": 126.612453 }, "geometry": { "type": "Point", "coordinates": [ 126.612453, 37.685121 ] } },
{ "type": "Feature", "properties": { "주소": "경기도 김포시 통진읍 율마로438번길 51", "시설명": "김포마송LH5단지 경로당", "시설구분": "특정계층이용시설-회원이용시설", "이용가능시간(기본)": "13:00 ~ 17:00 (월-일)", "이용가능시간(추가/주말)": null, "이용구분": "특정인 이용가능", "Latitude": 37.688541, "Longitude": 126.615412 }, "geometry": { "type": "Point", "coordinates": [ 126.615412, 37.688541 ] } },
{ "type": "Feature", "properties": { "주소": "경기도 김포시 통진읍 마송1로 122", "시설명": "e편한세상로얄하임경로당", "시설구분": "특정계층이용시설-회원이용시설", "이용가능시간(기본)": "13:00 ~ 17:00 (월-일)", "이용가능시간(추가/주말)": null, "이용구분": "특정인 이용가능", "Latitude": 37.691245, "Longitude": 126.618541 }, "geometry": { "type": "Point", "coordinates": [ 126.618541, 37.691245 ] } },
{ "type": "Feature", "properties": { "주소": "경기도 김포시 통진읍 김포대로2250번길 23-14", "시설명": "소망마을경로당", "시설구분": "특정계층이용시설-회원이용시설", "이용가능시간(기본)": "09:00 ~ 18:00 (월-금)", "이용가능시간(추가/주말)": null, "이용구분": "특정인 이용가능", "Latitude": 37.698541, "Longitude": 126.621245 }, "geometry": { "type": "Point", "coordinates": [ 126.621245, 37.698541 ] } },
{ "type": "Feature", "properties": { "주소": "경기도 김포시 통진읍 김포대로2270번길 29", "시설명": "마송6리(현대1차아파트)경로당", "시설구분": "특정계층이용시설-회원이용시설", "이용가능시간(기본)": "13:00 ~ 17:00 (월-일)", "이용가능시간(추가/주말)": null, "이용구분": "특정인 이용가능", "Latitude": 37.701245, "Longitude": 126.623451 }, "geometry": { "type": "Point", "coordinates": [ 126.623451, 37.701245 ] } },
{ "type": "Feature", "properties": { "주소": "경기도 김포시 통진읍 마송2로104번길 43", "시설명": "마송2리경로당", "시설구분": "특정계층이용시설-회원이용시설", "이용가능시간(기본)": "09:00 ~ 17:00 (월-일)", "이용가능시간(추가/주말)": null, "이용구분": "특정인 이용가능", "Latitude": 37.694512, "Longitude": 126.625412 }, "geometry": { "type": "Point", "coordinates": [ 126.625412, 37.694512 ] } },
{ "type": "Feature", "properties": { "주소": "경기도 김포시 통진읍 김포대로 2282", "시설명": "마송현대2차아파트경로당", "시설구분": "특정계층이용시설-회원이용시설", "이용가능시간(기본)": "13:00 ~ 17:00 (월-일)", "이용가능시간(추가/주말)": null, "이용구분": "특정인 이용가능", "Latitude": 37.705412, "Longitude": 126.628541 }, "geometry": { "type": "Point", "coordinates": [ 126.628541, 37.705412 ] } },
{ "type": "Feature", "properties": { "주소": "경기도 김포시 통진읍 마송1로 133", "시설명": "마송4리경로당", "시설구분": "특정계층이용시설-회원이용시설", "이용가능시간(기본)": "11:00 ~ 18:00 (월-일)", "이용가능시간(추가/주말)": null, "이용구분": "특정인 이용가능", "Latitude": 37.695412, "Longitude": 126.612451 }, "geometry": { "type": "Point", "coordinates": [ 126.612451, 37.695412 ] } },
{ "type": "Feature", "properties": { "주소": "경기도 김포시 통진읍 마송1로 134-25", "시설명": "마송휴먼시아매수리마을10단지경로당", "시설구분": "특정계층이용시설-회원이용시설", "이용가능시간(기본)": "09:00 ~ 17:00 (월-일)", "이용가능시간(추가/주말)": null, "이용구분": "특정인 이용가능", "Latitude": 37.691245, "Longitude": 126.615412 }, "geometry": { "type": "Point", "coordinates": [ 126.615412, 37.691245 ] } },
{ "type": "Feature", "properties": { "주소": "경기도 김포시 고촌읍 태리로190번길 79-4", "시설명": "신촌경로당", "시설구분": "특정계층이용시설-회원이용시설", "이용가능시간(기본)": "13:00 ~ 17:00 (월-일)", "이용가능시간(추가/주말)": null, "이용구분": "특정인 이용가능", "Latitude": 37.595412, "Longitude": 126.775412 }, "geometry": { "type": "Point", "coordinates": [ 126.775412, 37.595412 ] } },
{ "type": "Feature", "properties": { "주소": "경기도 김포시 고촌읍 수기로 8", "시설명": "한화경로당", "시설구분": "특정계층이용시설-회원이용시설", "이용가능시간(기본)": "13:00 ~ 17:00 (월-일)", "이용가능시간(추가/주말)": null, "이용구분": "특정인 이용가능", "Latitude": 37.598541, "Longitude": 126.772145 }, "geometry": { "type": "Point", "coordinates": [ 126.772145, 37.598541 ] } },
{ "type": "Feature", "properties": { "주소": "경기도 김포시 고촌읍 태리로 236", "시설명": "캐슬앤파밀리에시티1단지경로당", "시설구분": "특정계층이용시설-회원이용시설", "이용가능시간(기본)": "13:00 ~ 17:00 (월-일)", "이용가능시간(추가/주말)": null, "이용구분": "특정인 이용가능", "Latitude": 37.592145, "Longitude": 126.778541 }, "geometry": { "type": "Point", "coordinates": [ 126.778541, 37.592145 ] } },
{ "type": "Feature", "properties": { "주소": "경기도 김포시 고촌읍 신곡로3번길 34-16", "시설명": "동일하이빌경로당", "시설구분": "특정계층이용시설-회원이용시설", "이용가능시간(기본)": "13:00 ~ 17:00 (월-일)", "이용가능시간(추가/주말)": null, "이용구분": "특정인 이용가능", "Latitude": 37.601245, "Longitude": 126.765412 }, "geometry": { "type": "Point", "coordinates": [ 126.765412, 37.601245 ] } },
{ "type": "Feature", "properties": { "주소": "경기도 김포시 고촌읍 장차로 25", "시설명": "고송경로당", "시설구분": "특정계층이용시설-회원이용시설", "이용가능시간(기본)": "13:00 ~ 17:00 (월-일)", "이용가능시간(추가/주말)": null, "이용구분": "특정인 이용가능", "Latitude": 37.604512, "Longitude": 126.762145 }, "geometry": { "type": "Point", "coordinates": [ 126.762145, 37.604512 ] } },
{ "type": "Feature", "properties": { "주소": "경기도 김포시 고촌읍 신곡로 33", "시설명": "청도솔리움아파트경로당", "시설구분": "특정계층이용시설-회원이용시설", "이용가능시간(기본)": "13:00 ~ 17:00 (월-일)", "이용가능시간(추가/주말)": null, "이용구분": "특정인 이용가능", "Latitude": 37.601245, "Longitude": 126.768541 }, "geometry": { "type": "Point", "coordinates": [ 126.768541, 37.601245 ] } },
{ "type": "Feature", "properties": { "주소": "경기도 김포시 고촌읍 고송로 17", "시설명": "대우아파트경로당", "시설구분": "특정계층이용시설-회원이용시설", "이용가능시간(기본)": "13:00 ~ 17:00 (월-일)", "이용가능시간(추가/주말)": null, "이용구분": "특정인 이용가능", "Latitude": 37.602451, "Longitude": 126.764512 }, "geometry": { "type": "Point", "coordinates": [ 126.764512, 37.602451 ] } },
{ "type": "Feature", "properties": { "주소": "경기도 김포시 고촌읍 전호로26번길 4", "시설명": "전호1리경로당", "시설구분": "특정계층이용시설-회원이용시설", "이용가능시간(기본)": "13:00 ~ 17:00 (월-일)", "이용가능시간(추가/주말)": null, "이용구분": "특정인 이용가능", "Latitude": 37.595412, "Longitude": 126.795412 }, "geometry": { "type": "Point", "coordinates": [ 126.795412, 37.595412 ] } },
{ "type": "Feature", "properties": { "주소": "경기도 김포시 고촌읍 장차로 14", "시설명": "고촌읍행정복지센터", "시설구분": "공공시설-공공청사", "이용가능시간(기본)": "09:00 ~ 18:00 (월-금)", "이용가능시간(추가/주말)": null, "이용구분": "누구나 이용가능", "Latitude": 37.601245, "Longitude": 126.768541 }, "geometry": { "type": "Point", "coordinates": [ 126.768541, 37.601245 ] } },
{ "type": "Feature", "properties": { "주소": "경기도 김포시 양촌읍 양곡1로68번길 37", "시설명": "양촌읍행정복지센터및북카페", "시설구분": "공공시설-공공청사", "이용가능시간(기본)": "09:00 ~ 18:00 (월-금)", "이용가능시간(추가/주말)": null, "이용구분": "누구나 이용가능", "Latitude": 37.648541, "Longitude": 126.632145 }, "geometry": { "type": "Point", "coordinates": [ 126.632145, 37.648541 ] } },
{ "type": "Feature", "properties": { "주소": "경기도 김포시 양촌읍 삼도로 302", "시설명": "학운4리경로당", "시설구분": "특정계층이용시설-회원이용시설", "이용가능시간(기본)": "13:00 ~ 17:00 (월-일)", "이용가능시간(추가/주말)": null, "이용구분": "특정인 이용가능", "Latitude": 37.625412, "Longitude": 126.585412 }, "geometry": { "type": "Point", "coordinates": [ 126.585412, 37.625412 ] } },
{ "type": "Feature", "properties": { "주소": "경기도 김포시 양촌읍 고음달로 88-1", "시설명": "학운6리경로당", "시설구분": "특정계층이용시설-회원이용시설", "이용가능시간(기본)": "13:00 ~ 17:00 (월-일)", "이용가능시간(추가/주말)": null, "이용구분": "특정인 이용가능", "Latitude": 37.621245, "Longitude": 126.591245 }, "geometry": { "type": "Point", "coordinates": [ 126.591245, 37.621245 ] } },
{ "type": "Feature", "properties": { "주소": "경기도 김포시 양촌읍 양곡2로 5-4", "시설명": "구래4리경로당", "시설구분": "특정계층이용시설-회원이용시설", "이용가능시간(기본)": "13:00 ~ 17:00 (월-일)", "이용가능시간(추가/주말)": null, "이용구분": "특정인 이용가능", "Latitude": 37.641245, "Longitude": 126.621245 }, "geometry": { "type": "Point", "coordinates": [ 126.621245, 37.641245 ] } },
{ "type": "Feature", "properties": { "주소": "경기도 김포시 양촌읍 김포대로1750번길 96", "시설명": "누산1리경로당", "시설구분": "특정계층이용시설-회원이용시설", "이용가능시간(기본)": "13:00 ~ 17:00 (월-일)", "이용가능시간(추가/주말)": null, "이용구분": "특정인 이용가능", "Latitude": 37.658541, "Longitude": 126.654123 }, "geometry": { "type": "Point", "coordinates": [ 126.654123, 37.658541 ] } },
{ "type": "Feature", "properties": { "주소": "경기도 김포시 양촌읍 양곡1로 77", "시설명": "양곡9리경로당", "시설구분": "특정계층이용시설-회원이용시설", "이용가능시간(기본)": "13:00 ~ 17:00 (월-일)", "이용가능시간(추가/주말)": null, "이용구분": "특정인 이용가능", "Latitude": 37.645123, "Longitude": 126.635412 }, "geometry": { "type": "Point", "coordinates": [ 126.635412, 37.645123 ] } },
{ "type": "Feature", "properties": { "주소": "경기도 김포시 양촌읍 양곡1로 66-8", "시설명": "양곡16리경로당", "시설구분": "특정계층이용시설-회원이용시설", "이용가능시간(기본)": "13:00 ~ 17:00 (월-일)", "이용가능시간(추가/주말)": null, "이용구분": "특정인 이용가능", "Latitude": 37.642145, "Longitude": 126.632145 }, "geometry": { "type": "Point", "coordinates": [ 126.632145, 37.642145 ] } },
{ "type": "Feature", "properties": { "주소": "경기도 김포시 양촌읍 양곡로390번길 43", "시설명": "양능마을경로당", "시설구분": "특정계층이용시설-회원이용시설", "이용가능시간(기본)": "13:00 ~ 17:00 (월-일)", "이용가능시간(추가/주말)": null, "이용구분": "특정인 이용가능", "Latitude": 37.638541, "Longitude": 126.635412 }, "geometry": { "type": "Point", "coordinates": [ 126.635412, 37.638541 ] } },
{ "type": "Feature", "properties": { "주소": "경기도 김포시 양촌읍 양곡1로68번길 59", "시설명": "삼정그린코아경로당", "시설구분": "특정계층이용시설-회원이용시설", "이용가능시간(기본)": "13:00 ~ 17:00 (월-일)", "이용가능시간(추가/주말)": null, "이용구분": "특정인 이용가능", "Latitude": 37.6496412, "Longitude": 126.6345123 }, "geometry": { "type": "Point", "coordinates": [ 126.6345123, 37.6496412 ] } },
{ "type": "Feature", "properties": { "주소": "경기도 김포시 양촌읍 양곡4로197번길 40", "시설명": "양곡도서관", "시설구분": "공공시설-복지·문화·체육시설", "이용가능시간(기본)": "09:00 ~ 22:00 (월-목)", "이용가능시간(추가/주말)": null, "이용구분": "누구나 이용가능", "Latitude": 37.6496412, "Longitude": 126.6345123 }, "geometry": { "type": "Point", "coordinates": [ 126.6345123, 37.6496412 ] } },
{ "type": "Feature", "properties": { "주소": "경기도 김포시 대곶면 용두로 4", "시설명": "초원2리경로당", "시설구분": "특정계층이용시설-회원이용시설", "이용가능시간(기본)": "13:00 ~ 17:00 (월-일)", "이용가능시간(추가/주말)": null, "이용구분": "특정인 이용가능", "Latitude": 37.642145, "Longitude": 126.575412 }, "geometry": { "type": "Point", "coordinates": [ 126.575412, 37.642145 ] } },
{ "type": "Feature", "properties": { "주소": "경기도 김포시 대곶면 율생중앙로206번길 145", "시설명": "송마1리경로당", "시설구분": "특정계층이용시설-회원이용시설", "이용가능시간(기본)": "13:00 ~ 17:00 (월-일)", "이용가능시간(추가/주말)": null, "이용구분": "특정인 이용가능", "Latitude": 37.665412, "Longitude": 126.591245 }, "geometry": { "type": "Point", "coordinates": [ 126.591245, 37.665412 ] } },
{ "type": "Feature", "properties": { "주소": "경기도 김포시 대곶면 산자뫼로 102", "시설명": "송마3리경로당", "시설구분": "특정계층이용시설-회원이용시설", "이용가능시간(기본)": "13:00 ~ 17:00 (월-일)", "이용가능시간(추가/주말)": null, "이용구분": "특정인 이용가능", "Latitude": 37.671245, "Longitude": 126.595412 }, "geometry": { "type": "Point", "coordinates": [ 126.595412, 37.671245 ] } },
{ "type": "Feature", "properties": { "주소": "경기도 김포시 대곶면 쇄암로 128", "시설명": "쇄암리경로당", "시설구분": "특정계층이용시설-회원이용시설", "이용가능시간(기본)": "13:00 ~ 17:00 (월-일)", "이용가능시간(추가/주말)": null, "이용구분": "특정인 이용가능", "Latitude": 37.635412, "Longitude": 126.545123 }, "geometry": { "type": "Point", "coordinates": [ 126.545123, 37.635412 ] } },
{ "type": "Feature", "properties": { "주소": "경기도 김포시 대곶면 율생로 83-23", "시설명": "대곶면행정복지센터", "시설구분": "공공시설-공공청사", "이용가능시간(기본)": "09:00 ~ 18:00 (월-금)", "이용가능시간(추가/주말)": null, "이용구분": "누구나 이용가능", "Latitude": 37.65123, "Longitude": 126.585412 }, "geometry": { "type": "Point", "coordinates": [ 126.585412, 37.65123 ] } },
{ "type": "Feature", "properties": { "주소": "경기도 김포시 월곶면 군하로 263", "시설명": "월곶면행정복지센터", "시설구분": "공공시설-공공청사", "이용가능시간(기본)": "09:00 ~ 18:00 (월-금)", "이용가능시간(추가/주말)": null, "이용구분": "누구나 이용가능", "Latitude": 37.702541, "Longitude": 126.545123 }, "geometry": { "type": "Point", "coordinates": [ 126.545123, 37.702541 ] } },
{ "type": "Feature", "properties": { "주소": "경기도 김포시 월곶면 용강로437번길 98", "시설명": "용강리경로당", "시설구분": "특정계층이용시설-회원이용시설", "이용가능시간(기본)": "13:00 ~ 17:00 (월-일)", "이용가능시간(추가/주말)": null, "이용구분": "특정인 이용가능", "Latitude": 37.754123, "Longitude": 126.525412 }, "geometry": { "type": "Point", "coordinates": [ 126.525412, 37.754123 ] } },
{ "type": "Feature", "properties": { "주소": "경기도 김포시 월곶면 김포대학로 232-1", "시설명": "고막1리경로당", "시설구분": "특정계층이용시설-회원이용시설", "이용가능시간(기본)": "13:00 ~ 17:00 (월-일)", "이용가능시간(추가/주말)": null, "이용구분": "특정인 이용가능", "Latitude": 37.712451, "Longitude": 126.535412 }, "geometry": { "type": "Point", "coordinates": [ 126.535412, 37.712451 ] } },
{ "type": "Feature", "properties": { "주소": "경기도 김포시 월곶면 문수산로252번길 7", "시설명": "성동2리경로당", "시설구분": "특정계층이용시설-회원이용시설", "이용가능시간(기본)": "13:00 ~ 17:00 (월-일)", "이용가능시간(추가/주말)": null, "이용구분": "특정인 이용가능", "Latitude": 37.718541, "Longitude": 126.512345 }, "geometry": { "type": "Point", "coordinates": [ 126.512345, 37.718541 ] } },
{ "type": "Feature", "properties": { "주소": "경기도 김포시 월곶면 포내로83번길 24", "시설명": "포내1리경로당", "시설구분": "특정계층이용시설-회원이용시설", "이용가능시간(기본)": "13:00 ~ 17:00 (월-일)", "이용가능시간(추가/주말)": null, "이용구분": "특정인 이용가능", "Latitude": 37.705412, "Longitude": 126.518541 }, "geometry": { "type": "Point", "coordinates": [ 126.518541, 37.705412 ] } },
{ "type": "Feature", "properties": { "주소": "경기도 김포시 월곶면 고양로115번길 209", "시설명": "고양1리경로당", "시설구분": "특정계층이용시설-회원이용시설", "이용가능시간(기본)": "13:00 ~ 17:00 (월-일)", "이용가능시간(추가/주말)": null, "이용구분": "특정인 이용가능", "Latitude": 37.698541, "Longitude": 126.532145 }, "geometry": { "type": "Point", "coordinates": [ 126.532145, 37.698541 ] } },
{ "type": "Feature", "properties": { "주소": "경기도 김포시 하성면 월하로672번길 38-4", "시설명": "원산2리경로당", "시설구분": "특정계층이용시설-회원이용시설", "이용가능시간(기본)": "13:00 ~ 17:00 (월-일)", "이용가능시간(추가/주말)": null, "이용구분": "특정인 이용가능", "Latitude": 37.712451, "Longitude": 126.654123 }, "geometry": { "type": "Point", "coordinates": [ 126.654123, 37.712451 ] } },
{ "type": "Feature", "properties": { "주소": "경기도 김포시 하성면 하성로678번길 64", "시설명": "양택1리경로당", "시설구분": "특정계층이용시설-회원이용시설", "이용가능시간(기본)": "13:00 ~ 17:00 (월-일)", "이용가능시간(추가/주말)": null, "이용구분": "특정인 이용가능", "Latitude": 37.718541, "Longitude": 126.661245 }, "geometry": { "type": "Point", "coordinates": [ 126.661245, 37.718541 ] } },
{ "type": "Feature", "properties": { "주소": "경기도 김포시 하성면 가금로 282", "시설명": "가금1리경로당무더위쉼터", "시설구분": "특정계층이용시설-회원이용시설", "이용가능시간(기본)": "09:00 ~ 17:00 (월-일)", "이용가능시간(추가/주말)": null, "이용구분": "특정인 이용가능", "Latitude": 37.754123, "Longitude": 126.645123 }, "geometry": { "type": "Point", "coordinates": [ 126.645123, 37.754123 ] } },
{ "type": "Feature", "properties": { "주소": "경기도 김포시 하성면 하성로 914", "시설명": "마조2리경로당", "시설구분": "특정계층이용시설-회원이용시설", "이용가능시간(기본)": "13:00 ~ 17:00 (월-일)", "이용가능시간(추가/주말)": null, "이용구분": "특정인 이용가능", "Latitude": 37.741245, "Longitude": 126.632145 }, "geometry": { "type": "Point", "coordinates": [ 126.632145, 37.741245 ] } },
{ "type": "Feature", "properties": { "주소": "경기도 김포시 하성면 하성로1141번길 123", "시설명": "시암2리경로당", "시설구분": "특정계층이용시설-회원이용시설", "이용가능시간(기본)": "13:00 ~ 17:00 (월-일)", "이용가능시간(추가/주말)": null, "이용구분": "특정인 이용가능", "Latitude": 37.785412, "Longitude": 126.621245 }, "geometry": { "type": "Point", "coordinates": [ 126.621245, 37.785412 ] } },
{ "type": "Feature", "properties": { "주소": "경기도 김포시 하성면 석평로 108-1", "시설명": "석탄2리경로당", "시설구분": "특정계층이용시설-회원이용시설", "이용가능시간(기본)": "11:00 ~ 17:00 (월-일)", "이용가능시간(추가/주말)": null, "이용구분": "특정인 이용가능", "Latitude": 37.732145, "Longitude": 126.678541 }, "geometry": { "type": "Point", "coordinates": [ 126.678541, 37.732145 ] } },
{ "type": "Feature", "properties": { "주소": "경기도 김포시 하성면 석평로184번길 112-5", "시설명": "석탄4리경로당", "시설구분": "특정계층이용시설-회원이용시설", "이용가능시간(기본)": "11:00 ~ 17:00 (월-일)", "이용가능시간(추가/주말)": null, "이용구분": "특정인 이용가능", "Latitude": 37.738541, "Longitude": 126.685412 }, "geometry": { "type": "Point", "coordinates": [ 126.685412, 37.738541 ] } },
{ "type": "Feature", "properties": { "주소": "경기도 김포시 하성면 하성로 480-17", "시설명": "마곡4리경로당", "시설구분": "특정계층이용시설-회원이용시설", "이용가능시간(기본)": "13:00 ~ 17:00 (월-일)", "이용가능시간(추가/주말)": null, "이용구분": "특정인 이용가능", "Latitude": 37.721245, "Longitude": 126.641245 }, "geometry": { "type": "Point", "coordinates": [ 126.641245, 37.721245 ] } },
{ "type": "Feature", "properties": { "주소": "경기도 김포시 하성면 애기봉로 845", "시설명": "하성면행정복지센터", "시설구분": "공공시설-공공청사", "이용가능시간(기본)": "09:00 ~ 18:00 (월-금)", "이용가능시간(추가/주말)": null, "이용구분": "누구나 이용가능", "Latitude": 37.725412, "Longitude": 126.632145 }, "geometry": { "type": "Point", "coordinates": [ 126.632145, 37.725412 ] } },
{ "type": "Feature", "properties": { "주소": "경기도 김포시 하성면 석평로166번길 19", "시설명": "석탄3리경로당", "시설구분": "특정계층이용시설-회원이용시설", "이용가능시간(기본)": "13:00 ~ 17:00 (월-일)", "이용가능시간(추가/주말)": null, "이용구분": "특정인 이용가능", "Latitude": 37.735412, "Longitude": 126.675412 }, "geometry": { "type": "Point", "coordinates": [ 126.675412, 37.735412 ] } },
{ "type": "Feature", "properties": { "주소": "경기도 김포시 하성면 석평로 222", "시설명": "석탄5리경로당", "시설구분": "특정계층이용시설-회원이용시설", "이용가능시간(기본)": "13:00 ~ 17:00 (월-일)", "이용가능시간(추가/주말)": null, "이용구분": "특정인 이용가능", "Latitude": 37.741245, "Longitude": 126.681245 }, "geometry": { "type": "Point", "coordinates": [ 126.681245, 37.741245 ] } },
{ "type": "Feature", "properties": { "주소": "경기도 김포시 하성면 애기봉로806번길 68-13", "시설명": "마곡1리경로당", "시설구분": "특정계층이용시설-회원이용시설", "이용가능시간(기본)": "13:00 ~ 17:00 (월-일)", "이용가능시간(추가/주말)": null, "이용구분": "특정인 이용가능", "Latitude": 37.728541, "Longitude": 126.635412 }, "geometry": { "type": "Point", "coordinates": [ 126.635412, 37.728541 ] } },
{ "type": "Feature", "properties": { "주소": "경기도 김포시 하성면 마근포로 123-2", "시설명": "마근포리경로당", "시설구분": "특정계층이용시설-회원이용시설", "이용가능시간(기본)": "13:00 ~ 17:00 (월-일)", "이용가능시간(추가/주말)": null, "이용구분": "특정인 이용가능", "Latitude": 37.765412, "Longitude": 126.612451 }, "geometry": { "type": "Point", "coordinates": [ 126.612451, 37.765412 ] } },
{ "type": "Feature", "properties": { "주소": "경기도 김포시 북변1로 13", "시설명": "김포본동행정복지센터", "시설구분": "공공시설-공공청사", "이용가능시간(기본)": "09:00 ~ 18:00 (월-금)", "이용가능시간(추가/주말)": null, "이용구분": "누구나 이용가능", "Latitude": 37.625412, "Longitude": 126.712345 }, "geometry": { "type": "Point", "coordinates": [ 126.712345, 37.625412 ] } },
{ "type": "Feature", "properties": { "주소": "경기도 김포시 봉화로182번길 33", "시설명": "북변대우아파트경로당", "시설구분": "특정계층이용시설-회원이용시설", "이용가능시간(기본)": "10:00 ~ 17:00 (월-일)", "이용가능시간(추가/주말)": null, "이용구분": "특정인 이용가능", "Latitude": 37.631245, "Longitude": 126.715412 }, "geometry": { "type": "Point", "coordinates": [ 126.715412, 37.631245 ] } },
{ "type": "Feature", "properties": { "주소": "경기도 김포시 감정로 64", "시설명": "신안실크밸리경로당", "시설구분": "특정계층이용시설-회원이용시설", "이용가능시간(기본)": "09:00 ~ 18:00 (월-일)", "이용가능시간(추가/주말)": null, "이용구분": "특정인 이용가능", "Latitude": 37.632145, "Longitude": 126.701245 }, "geometry": { "type": "Point", "coordinates": [ 126.701245, 37.632145 ] } },
{ "type": "Feature", "properties": { "주소": "경기도 김포시 봉화로167번길 35-9", "시설명": "건영아파트경로당", "시설구분": "특정계층이용시설-회원이용시설", "이용가능시간(기본)": "09:00 ~ 17:00 (월-일)", "이용가능시간(추가/주말)": null, "이용구분": "특정인 이용가능", "Latitude": 37.628541, "Longitude": 126.718541 }, "geometry": { "type": "Point", "coordinates": [ 126.718541, 37.628541 ] } },
{ "type": "Feature", "properties": { "주소": "경기도 김포시 감정로 75", "시설명": "신안실크밸리(2차)경로당", "시설구분": "특정계층이용시설-회원이용시설", "이용가능시간(기본)": "09:00 ~ 17:00 (월-일)", "이용가능시간(추가/주말)": null, "이용구분": "특정인 이용가능", "Latitude": 37.635412, "Longitude": 126.698541 }, "geometry": { "type": "Point", "coordinates": [ 126.698541, 37.635412 ] } },
{ "type": "Feature", "properties": { "주소": "경기도 김포시 봉화로181번길 31-14", "시설명": "한국아파트경로당", "시설구분": "특정계층이용시설-회원이용시설", "이용가능시간(기본)": "10:00 ~ 17:00 (월-일)", "이용가능시간(추가/주말)": null, "이용구분": "특정인 이용가능", "Latitude": 37.625412, "Longitude": 126.712451 }, "geometry": { "type": "Point", "coordinates": [ 126.712451, 37.625412 ] } },
{ "type": "Feature", "properties": { "주소": "경기도 김포시 북변1로16번길 34", "시설명": "산호아파트경로당", "시설구분": "특정계층이용시설-회원이용시설", "이용가능시간(기본)": "10:00 ~ 17:00 (월-일)", "이용가능시간(추가/주말)": null, "이용구분": "특정인 이용가능", "Latitude": 37.628541, "Longitude": 126.708541 }, "geometry": { "type": "Point", "coordinates": [ 126.708541, 37.628541 ] } },
{ "type": "Feature", "properties": { "주소": "경기도 김포시 김포한강1로 9", "시설명": "반도유보라경로당", "시설구분": "특정계층이용시설-회원이용시설", "이용가능시간(기본)": "13:00 ~ 17:00 (월-일)", "이용가능시간(추가/주말)": null, "이용구분": "특정인 이용가능", "Latitude": 37.651234, "Longitude": 126.675412 }, "geometry": { "type": "Point", "coordinates": [ 126.675412, 37.651234 ] } },
{ "type": "Feature", "properties": { "주소": "경기도 김포시 김포한강3로 290-16", "시설명": "이니스더원경로당", "시설구분": "특정계층이용시설-회원이용시설", "이용가능시간(기본)": "13:00 ~ 17:00 (월-일)", "이용가능시간(추가/주말)": null, "이용구분": "특정인 이용가능", "Latitude": 37.665412, "Longitude": 126.645123 }, "geometry": { "type": "Point", "coordinates": [ 126.645123, 37.665412 ] } },
{ "type": "Feature", "properties": { "주소": "경기도 김포시 청송로 70", "시설명": "청송1단지아파트경로당", "시설구분": "특정계층이용시설-회원이용시설", "이용가능시간(기본)": "13:00 ~ 17:00 (월-일)", "이용가능시간(추가/주말)": null, "이용구분": "특정인 이용가능", "Latitude": 37.661245, "Longitude": 126.685412 }, "geometry": { "type": "Point", "coordinates": [ 126.685412, 37.661245 ] } },
{ "type": "Feature", "properties": { "주소": "경기도 김포시 청송로 20", "시설명": "청송2단지아파트경로당", "시설구분": "특정계층이용시설-회원이용시설", "이용가능시간(기본)": "13:00 ~ 17:00 (월-일)", "이용가능시간(추가/주말)": null, "이용구분": "특정인 이용가능", "Latitude": 37.665412, "Longitude": 126.682145 }, "geometry": { "type": "Point", "coordinates": [ 126.682145, 37.665412 ] } },
{ "type": "Feature", "properties": { "주소": "경기도 김포시 청송로 19", "시설명": "청송3단지경로당", "시설구분": "특정계층이용시설-회원이용시설", "이용가능시간(기본)": "13:00 ~ 17:00 (월-일)", "이용가능시간(추가/주말)": null, "이용구분": "특정인 이용가능", "Latitude": 37.668541, "Longitude": 126.681245 }, "geometry": { "type": "Point", "coordinates": [ 126.681245, 37.668541 ] } },
{ "type": "Feature", "properties": { "주소": "경기도 김포시 김포한강2로 192", "시설명": "자연앤어울림경로당", "시설구분": "특정계층이용시설-회원이용시설", "이용가능시간(기본)": "13:00 ~ 17:00 (월-일)", "이용가능시간(추가/주말)": null, "이용구분": "특정인 이용가능", "Latitude": 37.654123, "Longitude": 126.658541 }, "geometry": { "type": "Point", "coordinates": [ 126.658541, 37.654123 ] } },
{ "type": "Feature", "properties": { "주소": "경기도 김포시 운곡로 17-5", "시설명": "운곡경로당", "시설구분": "특정계층이용시설-회원이용시설", "이용가능시간(기본)": "13:00 ~ 17:00 (월-일)", "이용가능시간(추가/주말)": null, "이용구분": "특정인 이용가능", "Latitude": 37.658541, "Longitude": 126.685412 }, "geometry": { "type": "Point", "coordinates": [ 126.685412, 37.658541 ] } },
{ "type": "Feature", "properties": { "주소": "경기도 김포시 김포대로 1433", "시설명": "장기본동행정복지센터", "시설구분": "공공시설-공공청사", "이용가능시간(기본)": "09:00 ~ 18:00 (월-금)", "이용가능시간(추가/주말)": null, "이용구분": "누구나 이용가능", "Latitude": 37.651234, "Longitude": 126.668541 }, "geometry": { "type": "Point", "coordinates": [ 126.668541, 37.651234 ] } },
{ "type": "Feature", "properties": { "주소": "경기도 김포시 풍무로 232", "시설명": "길훈4차경로당", "시설구분": "특정계층이용시설-회원이용시설", "이용가능시간(기본)": "13:00 ~ 17:00 (월-일)", "이용가능시간(추가/주말)": null, "이용구분": "특정인 이용가능", "Latitude": 37.612451, "Longitude": 126.732145 }, "geometry": { "type": "Point", "coordinates": [ 126.732145, 37.612451 ] } },
{ "type": "Feature", "properties": { "주소": "경기도 김포시 풍무로208번길 21-19", "시설명": "사우2통경로당", "시설구분": "특정계층이용시설-회원이용시설", "이용가능시간(기본)": "13:00 ~ 17:00 (월-일)", "이용가능시간(추가/주말)": null, "이용구분": "특정인 이용가능", "Latitude": 37.621245, "Longitude": 126.725412 }, "geometry": { "type": "Point", "coordinates": [ 126.725412, 37.621245 ] } },
{ "type": "Feature", "properties": { "주소": "경기도 김포시 사우로 59-30", "시설명": "3통경로당", "시설구분": "특정계층이용시설-회원이용시설", "이용가능시간(기본)": "13:00 ~ 17:00 (월-일)", "이용가능시간(추가/주말)": null, "이용구분": "특정인 이용가능", "Latitude": 37.618541, "Longitude": 126.718541 }, "geometry": { "type": "Point", "coordinates": [ 126.718541, 37.618541 ] } },
{ "type": "Feature", "properties": { "주소": "경기도 김포시 사우중로74번길 66", "시설명": "사우대우아파트경로당", "시설구분": "특정계층이용시설-회원이용시설", "이용가능시간(기본)": "13:00 ~ 17:00 (월-일)", "이용가능시간(추가/주말)": null, "이용구분": "특정인 이용가능", "Latitude": 37.625412, "Longitude": 126.721245 }, "geometry": { "type": "Point", "coordinates": [ 126.721245, 37.625412 ] } },
{ "type": "Feature", "properties": { "주소": "경기도 김포시 돌문로15번길 45", "시설명": "사우한신아파트경로당", "시설구분": "특정계층이용시설-회원이용시설", "이용가능시간(기본)": "13:00 ~ 17:00 (월-일)", "이용가능시간(추가/주말)": null, "이용구분": "특정인 이용가능", "Latitude": 37.621245, "Longitude": 126.715412 }, "geometry": { "type": "Point", "coordinates": [ 126.715412, 37.621245 ] } },
{ "type": "Feature", "properties": { "주소": "경기도 김포시 봉화로 13-17", "시설명": "사우8통경로당", "시설구분": "특정계층이용시설-회원이용시설", "이용가능시간(기본)": "13:00 ~ 17:00 (월-일)", "이용가능시간(추가/주말)": null, "이용구분": "특정인 이용가능", "Latitude": 37.618541, "Longitude": 126.712345 }, "geometry": { "type": "Point", "coordinates": [ 126.712345, 37.618541 ] } },
{ "type": "Feature", "properties": { "주소": "경기도 김포시 사우중로74번길 12", "시설명": "동양신명경로당", "시설구분": "특정계층이용시설-회원이용시설", "이용가능시간(기본)": "13:00 ~ 17:00 (월-일)", "이용가능시간(추가/주말)": null, "이용구분": "특정인 이용가능", "Latitude": 37.628541, "Longitude": 126.725412 }, "geometry": { "type": "Point", "coordinates": [ 126.725412, 37.628541 ] } },
{ "type": "Feature", "properties": { "주소": "경기도 김포시 봉화로 59-17", "시설명": "농장마을신안아파트경로당", "시설구분": "특정계층이용시설-회원이용시설", "이용가능시간(기본)": "13:00 ~ 17:00 (월-일)", "이용가능시간(추가/주말)": null, "이용구분": "특정인 이용가능", "Latitude": 37.625412, "Longitude": 126.718541 }, "geometry": { "type": "Point", "coordinates": [ 126.718541, 37.625412 ] } },
{ "type": "Feature", "properties": { "주소": "경기도 김포시 돌문로 51", "시설명": "사우동행정복지센터", "시설구분": "공공시설-공공청사", "이용가능시간(기본)": "09:00 ~ 18:00 (월-금)", "이용가능시간(추가/주말)": null, "이용구분": "누구나 이용가능", "Latitude": 37.621245, "Longitude": 126.715412 }, "geometry": { "type": "Point", "coordinates": [ 126.715412, 37.621245 ] } },
{ "type": "Feature", "properties": { "주소": "경기도 김포시 풍무로 35", "시설명": "현대아파트경로당", "시설구분": "특정계층이용시설-회원이용시설", "이용가능시간(기본)": "09:00 ~ 17:00 (월-일)", "이용가능시간(추가/주말)": null, "이용구분": "특정인 이용가능", "Latitude": 37.601245, "Longitude": 126.732145 }, "geometry": { "type": "Point", "coordinates": [ 126.732145, 37.601245 ] } },
{ "type": "Feature", "properties": { "주소": "경기도 김포시 승가로 89", "시설명": "삼성아파트경로당", "시설구분": "특정계층이용시설-회원이용시설", "이용가능시간(기본)": "11:00 ~ 18:00 (월-일)", "이용가능시간(추가/주말)": null, "이용구분": "특정인 이용가능", "Latitude": 37.598541, "Longitude": 126.728541 }, "geometry": { "type": "Point", "coordinates": [ 126.728541, 37.598541 ] } },
{ "type": "Feature", "properties": { "주소": "경기도 김포시 유현로 51", "시설명": "현대프라임빌경로당", "시설구분": "특정계층이용시설-회원이용시설", "이용가능시간(기본)": "12:00 ~ 17:00 (월-일)", "이용가능시간(추가/주말)": null, "이용구분": "특정인 이용가능", "Latitude": 37.595412, "Longitude": 126.735412 }, "geometry": { "type": "Point", "coordinates": [ 126.735412, 37.595412 ] } },
{ "type": "Feature", "properties": { "주소": "경기도 김포시 풍무로96번길 42", "시설명": "자이아파트1단지경로당", "시설구분": "특정계층이용시설-회원이용시설", "이용가능시간(기본)": "10:00 ~ 17:00 (월-일)", "이용가능시간(추가/주말)": null, "이용구분": "특정인 이용가능", "Latitude": 37.608541, "Longitude": 126.738541 }, "geometry": { "type": "Point", "coordinates": [ 126.738541, 37.608541 ] } },
{ "type": "Feature", "properties": { "주소": "경기도 김포시 풍무로96번길 100", "시설명": "자이아파트2단지경로당", "시설구분": "특정계층이용시설-회원이용시설", "이용가능시간(기본)": "10:00 ~ 17:00 (월-일)", "이용가능시간(추가/주말)": null, "이용구분": "특정인 이용가능", "Latitude": 37.612451, "Longitude": 126.741245 }, "geometry": { "type": "Point", "coordinates": [ 126.741245, 37.612451 ] } },
{ "type": "Feature", "properties": { "주소": "경기도 김포시 풍무로68번길 41", "시설명": "한화유로메트로2단지경로당", "시설구분": "특정계층이용시설-회원이용시설", "이용가능시간(기본)": "11:00 ~ 17:00 (월-일)", "이용가능시간(추가/주말)": null, "이용구분": "특정인 이용가능", "Latitude": 37.605412, "Longitude": 126.745123 }, "geometry": { "type": "Point", "coordinates": [ 126.745123, 37.605412 ] } },
{ "type": "Feature", "properties": { "주소": "경기도 김포시 풍무로68번길 78", "시설명": "꿈에그린더 포레듀 5단지 경로당", "시설구분": "특정계층이용시설-회원이용시설", "이용가능시간(기본)": "09:00 ~ 18:00 (월-일)", "이용가능시간(추가/주말)": null, "이용구분": "특정인 이용가능", "Latitude": 37.602451, "Longitude": 126.748541 }, "geometry": { "type": "Point", "coordinates": [ 126.748541, 37.602451 ] } },
{ "type": "Feature", "properties": { "주소": "경기도 김포시 유현로 200", "시설명": "풍무푸르지오아파트경로당", "시설구분": "특정계층이용시설-회원이용시설", "이용가능시간(기본)": "12:00 ~ 18:00 (월-일)", "이용가능시간(추가/주말)": null, "이용구분": "특정인 이용가능", "Latitude": 37.615412, "Longitude": 126.728541 }, "geometry": { "type": "Point", "coordinates": [ 126.728541, 37.615412 ] } },
{ "type": "Feature", "properties": { "주소": "경기도 김포시 유현로 215", "시설명": "풍무센트럴푸르지오아파트경로당", "시설구분": "특정계층이용시설-회원이용시설", "이용가능시간(기본)": "10:00 ~ 17:00 (월-일)", "이용가능시간(추가/주말)": null, "이용구분": "특정인 이용가능", "Latitude": 37.618541, "Longitude": 126.725412 }, "geometry": { "type": "Point", "coordinates": [ 126.725412, 37.618541 ] } },
{ "type": "Feature", "properties": { "주소": "경기도 김포시 풍무로69번길 51", "시설명": "월드메르디앙경로당", "시설구분": "특정계층이용시설-회원이용시설", "이용가능시간(기본)": "09:00 ~ 17:00 (월-일)", "이용가능시간(추가/주말)": null, "이용구분": "특정인 이용가능", "Latitude": 37.612451, "Longitude": 126.735412 }, "geometry": { "type": "Point", "coordinates": [ 126.735412, 37.612451 ] } },
{ "type": "Feature", "properties": { "주소": "경기도 김포시 풍무로 41-22", "시설명": "풍무5통경로당", "시설구분": "특정계층이용시설-회원이용시설", "이용가능시간(기본)": "12:00 ~ 17:00 (월-일)", "이용가능시간(추가/주말)": null, "이용구분": "특정인 이용가능", "Latitude": 37.605412, "Longitude": 126.731245 }, "geometry": { "type": "Point", "coordinates": [ 126.731245, 37.605412 ] } },
{ "type": "Feature", "properties": { "주소": "경기도 김포시 풍무로 36", "시설명": "범양아파트경로당", "시설구분": "특정계층이용시설-회원이용시설", "이용가능시간(기본)": "13:00 ~ 17:00 (월-일)", "이용가능시간(추가/주말)": null, "이용구분": "특정인 이용가능", "Latitude": 37.601245, "Longitude": 126.738541 }, "geometry": { "type": "Point", "coordinates": [ 126.738541, 37.601245 ] } },
{ "type": "Feature", "properties": { "주소": "경기도 김포시 풍무로131번길 10", "시설명": "수행경로당", "시설구분": "특정계층이용시설-회원이용시설", "이용가능시간(기본)": "09:00 ~ 17:00 (월-일)", "이용가능시간(추가/주말)": null, "이용구분": "특정인 이용가능", "Latitude": 37.608541, "Longitude": 126.725412 }, "geometry": { "type": "Point", "coordinates": [ 126.725412, 37.608541 ] } },
{ "type": "Feature", "properties": { "주소": "경기도 김포시 풍무로 113", "시설명": "신안아파트경로당", "시설구분": "특정계층이용시설-회원이용시설", "이용가능시간(기본)": "10:00 ~ 18:00 (월-일)", "이용가능시간(추가/주말)": null, "이용구분": "특정인 이용가능", "Latitude": 37.615412, "Longitude": 126.735412 }, "geometry": { "type": "Point", "coordinates": [ 126.735412, 37.615412 ] } },
{ "type": "Feature", "properties": { "주소": "경기도 김포시 장릉로 56", "시설명": "길훈1차경로당", "시설구분": "특정계층이용시설-회원이용시설", "이용가능시간(기본)": "13:00 ~ 17:00 (월-일)", "이용가능시간(추가/주말)": null, "이용구분": "특정인 이용가능", "Latitude": 37.621245, "Longitude": 126.708541 }, "geometry": { "type": "Point", "coordinates": [ 126.708541, 37.621245 ] } },
{ "type": "Feature", "properties": { "주소": "경기도 김포시 풍무로93번길 30", "시설명": "대림아파트경로당", "시설구분": "특정계층이용시설-회원이용시설", "이용가능시간(기본)": "09:00 ~ 17:00 (월-일)", "이용가능시간(추가/주말)": null, "이용구분": "특정인 이용가능", "Latitude": 37.612451, "Longitude": 126.738541 }, "geometry": { "type": "Point", "coordinates": [ 126.738541, 37.612451 ] } },
{ "type": "Feature", "properties": { "주소": "경기도 김포시 풍무로 96", "시설명": "삼용아파트경로당", "시설구분": "특정계층이용시설-회원이용시설", "이용가능시간(기본)": "11:00 ~ 17:00 (월-일)", "이용가능시간(추가/주말)": null, "이용구분": "특정인 이용가능", "Latitude": 37.615412, "Longitude": 126.741245 }, "geometry": { "type": "Point", "coordinates": [ 126.741245, 37.615412 ] } },
{ "type": "Feature", "properties": { "주소": "경기도 김포시 풍무로146번길 101", "시설명": "풍무도서관", "시설구분": "공공시설-복지·문화·체육시설", "이용가능시간(기본)": "09:00 ~ 22:00 (화-금)", "이용가능시간(추가/주말)": null, "이용구분": "누구나 이용가능", "Latitude": 37.618541, "Longitude": 126.735412 }, "geometry": { "type": "Point", "coordinates": [ 126.735412, 37.618541 ] } },
{ "type": "Feature", "properties": { "주소": "경기도 김포시 풍무로 74", "시설명": "풍무동행정복지센터", "시설구분": "공공시설-공공청사", "이용가능시간(기본)": "09:00 ~ 18:00 (월-금)", "이용가능시간(추가/주말)": null, "이용구분": "누구나 이용가능", "Latitude": 37.608541, "Longitude": 126.725412 }, "geometry": { "type": "Point", "coordinates": [ 126.725412, 37.608541 ] } },
{ "type": "Feature", "properties": { "주소": "경기도 김포시 김포한강2로 112", "시설명": "장기동행정복지센터", "시설구분": "공공시설-공공청사", "이용가능시간(기본)": "09:00 ~ 18:00 (월-금)", "이용가능시간(추가/주말)": null, "이용구분": "누구나 이용가능", "Latitude": 37.645123, "Longitude": 126.658541 }, "geometry": { "type": "Point", "coordinates": [ 126.658541, 37.645123 ] } },
{ "type": "Feature", "properties": { "주소": "경기도 김포시 김포한강2로 42", "시설명": "장기도서관", "시설구분": "공공시설-복지·문화·체육시설", "이용가능시간(기본)": "09:00 ~ 22:00 (월-목)", "이용가능시간(추가/주말)": null, "이용구분": "누구나 이용가능", "Latitude": 37.642145, "Longitude": 126.661245 }, "geometry": { "type": "Point", "coordinates": [ 126.661245, 37.642145 ] } },
{ "type": "Feature", "properties": { "주소": "경기도 김포시 옹주물로 91-12", "시설명": "외옹경로당", "시설구분": "특정계층이용시설-회원이용시설", "이용가능시간(기본)": "13:00 ~ 17:00 (월-일)", "이용가능시간(추가/주말)": null, "이용구분": "특정인 이용가능", "Latitude": 37.654123, "Longitude": 126.685412 }, "geometry": { "type": "Point", "coordinates": [ 126.685412, 37.654123 ] } },
{ "type": "Feature", "properties": { "주소": "경기도 김포시 옹주물로 21", "시설명": "장기경로당", "시설구분": "특정계층이용시설-회원이용시설", "이용가능시간(기본)": "10:00 ~ 17:00 (월-일)", "이용가능시간(추가/주말)": null, "이용구분": "특정인 이용가능", "Latitude": 37.651234, "Longitude": 126.681245 }, "geometry": { "type": "Point", "coordinates": [ 126.681245, 37.651234 ] } },
{ "type": "Feature", "properties": { "주소": "경기도 김포시 김포한강2로 144", "시설명": "초당마을주공아파트경로당", "시설구분": "특정계층이용시설-회원이용시설", "이용가능시간(기본)": "10:00 ~ 18:00 (월-일)", "이용가능시간(추가/주말)": null, "이용구분": "특정인 이용가능", "Latitude": 37.648541, "Longitude": 126.654123 }, "geometry": { "type": "Point", "coordinates": [ 126.654123, 37.648541 ] } },
{ "type": "Feature", "properties": { "주소": "경기도 김포시 김포한강9로115번길 25", "시설명": "구래동행정복지센터", "시설구분": "공공시설-공공청사", "이용가능시간(기본)": "09:00 ~ 18:00 (월-금)", "이용가능시간(추가/주말)": null, "이용구분": "누구나 이용가능", "Latitude": 37.645123, "Longitude": 126.625412 }, "geometry": { "type": "Point", "coordinates": [ 126.625412, 37.645123 ] } },
{ "type": "Feature", "properties": { "주소": "경기도 김포시 김포한강5로 417", "시설명": "한가람우미린아파트경로당", "시설구분": "특정계층이용시설-회원이용시설", "이용가능시간(기본)": "11:00 ~ 17:00 (월-일)", "이용가능시간(추가/주말)": null, "이용구분": "특정인 이용가능", "Latitude": 37.641245, "Longitude": 126.618541 }, "geometry": { "type": "Point", "coordinates": [ 126.618541, 37.641245 ] } },
{ "type": "Feature", "properties": { "주소": "경기도 김포시 솔터로 22", "시설명": "메트로타워예미지경로당", "시설구분": "특정계층이용시설-회원이용시설", "이용가능시간(기본)": "13:00 ~ 17:00 (월-일)", "이용가능시간(추가/주말)": null, "이용구분": "특정인 이용가능", "Latitude": 37.645123, "Longitude": 126.635412 }, "geometry": { "type": "Point", "coordinates": [ 126.635412, 37.645123 ] } },
{ "type": "Feature", "properties": { "주소": "경기도 김포시 김포한강8로 409", "시설명": "한강신도시3차푸르지오아파트경로당", "시설구분": "특정계층이용시설-회원이용시설", "이용가능시간(기본)": "13:00 ~ 17:00 (월-일)", "이용가능시간(추가/주말)": null, "이용구분": "특정인 이용가능", "Latitude": 37.642145, "Longitude": 126.628541 }, "geometry": { "type": "Point", "coordinates": [ 126.628541, 37.642145 ] } },
{ "type": "Feature", "properties": { "주소": "경기도 김포시 김포한강4로420번길 163", "시설명": "LH호수마을5단지경로당", "시설구분": "특정계층이용시설-회원이용시설", "이용가능시간(기본)": "11:00 ~ 17:00 (월-일)", "이용가능시간(추가/주말)": null, "이용구분": "특정인 이용가능", "Latitude": 37.638541, "Longitude": 126.621245 }, "geometry": { "type": "Point", "coordinates": [ 126.621245, 37.638541 ] } },
{ "type": "Feature", "properties": { "주소": "경기도 김포시 김포한강4로 487", "시설명": "반도유보라4차경로당", "시설구분": "특정계층이용시설-회원이용시설", "이용가능시간(기본)": "11:00 ~ 17:00 (월-일)", "이용가능시간(추가/주말)": null, "이용구분": "특정인 이용가능", "Latitude": 37.635412, "Longitude": 126.625412 }, "geometry": { "type": "Point", "coordinates": [ 126.625412, 37.635412 ] } },
{ "type": "Feature", "properties": { "주소": "경기도 김포시 김포한강9로 116", "시설명": "반도유보라5차경로당", "시설구분": "특정계층이용시설-회원이용시설", "이용가능시간(기본)": "13:00 ~ 17:00 (월-일)", "이용가능시간(추가/주말)": null, "이용구분": "특정인 이용가능", "Latitude": 37.648541, "Longitude": 126.628541 }, "geometry": { "type": "Point", "coordinates": [ 126.628541, 37.648541 ] } },
{ "type": "Feature", "properties": { "주소": "경기도 김포시 김포한강9로 11", "시설명": "김포한강예미지아파트경로당", "시설구분": "특정계층이용시설-회원이용시설", "이용가능시간(기본)": "13:00 ~ 17:00 (월-일)", "이용가능시간(추가/주말)": null, "이용구분": "특정인 이용가능", "Latitude": 37.651234, "Longitude": 126.632145 }, "geometry": { "type": "Point", "coordinates": [ 126.632145, 37.651234 ] } },
{ "type": "Feature", "properties": { "주소": "경기도 김포시 김포한강4로 564", "시설명": "김포한강한가람LH2단지경로당", "시설구분": "특정계층이용시설-회원이용시설", "이용가능시간(기본)": "11:00 ~ 17:00 (월-일)", "이용가능시간(추가/주말)": null, "이용구분": "특정인 이용가능", "Latitude": 37.645123, "Longitude": 126.612451 }, "geometry": { "type": "Point", "coordinates": [ 126.612451, 37.645123 ] } },
{ "type": "Feature", "properties": { "주소": "경기도 김포시 김포한강10로134번길 77", "시설명": "김포한강나비마을3단지경로당", "시설구분": "특정계층이용시설-회원이용시설", "이용가능시간(기본)": "13:00 ~ 17:00 (월-일)", "이용가능시간(추가/주말)": null, "이용구분": "특정인 이용가능", "Latitude": 37.648541, "Longitude": 126.615412 }, "geometry": { "type": "Point", "coordinates": [ 126.615412, 37.648541 ] } },
{ "type": "Feature", "properties": { "주소": "경기도 김포시 김포한강5로 385", "시설명": "자연앤e편한세상경로당", "시설구분": "특정계층이용시설-회원이용시설", "이용가능시간(기본)": "11:00 ~ 17:00 (월-일)", "이용가능시간(추가/주말)": null, "이용구분": "특정인 이용가능", "Latitude": 37.642145, "Longitude": 126.621245 }, "geometry": { "type": "Point", "coordinates": [ 126.621245, 37.642145 ] } },
{ "type": "Feature", "properties": { "주소": "경기도 김포시 김포한강4로 471", "시설명": "호반베르디움더레이크2차아파트경로당", "시설구분": "특정계층이용시설-회원이용시설", "이용가능시간(기본)": "11:00 ~ 17:00 (월-일)", "이용가능시간(추가/주말)": null, "이용구분": "특정인 이용가능", "Latitude": 37.638541, "Longitude": 126.625412 }, "geometry": { "type": "Point", "coordinates": [ 126.625412, 37.638541 ] } },
{ "type": "Feature", "properties": { "주소": "경기도 김포시 김포한강4로420번길 100", "시설명": "구래동김포한강아이파크경로당", "시설구분": "특정계층이용시설-회원이용시설", "이용가능시간(기본)": "11:00 ~ 17:00 (월-일)", "이용가능시간(추가/주말)": null, "이용구분": "특정인 이용가능", "Latitude": 37.641245, "Longitude": 126.628541 }, "geometry": { "type": "Point", "coordinates": [ 126.628541, 37.641245 ] } },
{ "type": "Feature", "properties": { "주소": "경기도 김포시 김포한강8로 365", "시설명": "구래역화성파크드림경로당", "시설구분": "특정계층이용시설-회원이용시설", "이용가능시간(기본)": "13:00 ~ 17:00 (월-일)", "이용가능시간(추가/주말)": null, "이용구분": "특정인 이용가능", "Latitude": 37.645123, "Longitude": 126.632145 }, "geometry": { "type": "Point", "coordinates": [ 126.632145, 37.645123 ] } },
{ "type": "Feature", "properties": { "주소": "경기도 김포시 김포한강9로115번길 37", "시설명": "김포한강데세리브경로당", "시설구분": "특정계층이용시설-회원이용시설", "이용가능시간(기본)": "13:00 ~ 17:00 (월-일)", "이용가능시간(추가/주말)": null, "이용구분": "특정인 이용가능", "Latitude": 37.648541, "Longitude": 126.635412 }, "geometry": { "type": "Point", "coordinates": [ 126.635412, 37.648541 ] } },
{ "type": "Feature", "properties": { "주소": "경기도 김포시 김포한강4로420번길 164", "시설명": "자연앤e편한세상3단지아파트경로당", "시설구분": "특정계층이용시설-회원이용시설", "이용가능시간(기본)": "11:00 ~ 17:00 (월-일)", "이용가능시간(추가/주말)": null, "이용구분": "특정인 이용가능", "Latitude": 37.651234, "Longitude": 126.638541 }, "geometry": { "type": "Point", "coordinates": [ 126.638541, 37.651234 ] } },
{ "type": "Feature", "properties": { "주소": "경기도 김포시 김포한강8로 377", "시설명": "나비마을리슈빌아파트경로당", "시설구분": "특정계층이용시설-회원이용시설", "이용가능시간(기본)": "13:00 ~ 17:00 (월-일)", "이용가능시간(추가/주말)": null, "이용구분": "특정인 이용가능", "Latitude": 37.645123, "Longitude": 126.641245 }, "geometry": { "type": "Point", "coordinates": [ 126.641245, 37.645123 ] } },
{ "type": "Feature", "properties": { "주소": "경기도 김포시 김포한강8로 331", "시설명": "솔터마을2단지경로당", "시설구분": "특정계층이용시설-회원이용시설", "이용가능시간(기본)": "13:00 ~ 17:00 (월-일)", "이용가능시간(추가/주말)": null, "이용구분": "특정인 이용가능", "Latitude": 37.648541, "Longitude": 126.645123 }, "geometry": { "type": "Point", "coordinates": [ 126.645123, 37.648541 ] } },
{ "type": "Feature", "properties": { "주소": "경기도 김포시 김포한강8로 333", "시설명": "솔터마을3단지경로당", "시설구분": "특정계층이용시설-회원이용시설", "이용가능시간(기본)": "13:00 ~ 17:00 (월-일)", "이용가능시간(추가/주말)": null, "이용구분": "특정인 이용가능", "Latitude": 37.651234, "Longitude": 126.648541 }, "geometry": { "type": "Point", "coordinates": [ 126.648541, 37.651234 ] } },
{ "type": "Feature", "properties": { "주소": "경기도 김포시 김포한강7로22번길 174-6", "시설명": "마산도서관", "시설구분": "공공시설-복지·문화·체육시설", "이용가능시간(기본)": "09:00 ~ 22:00 (화-금)", "이용가능시간(추가/주말)": null, "이용구분": "누구나 이용가능", "Latitude": 37.654123, "Longitude": 126.651234 }, "geometry": { "type": "Point", "coordinates": [ 126.651234, 37.654123 ] } },
{ "type": "Feature", "properties": { "주소": "경기도 김포시 김포한강8로 246", "시설명": "마산동행정복지센터", "시설구분": "공공시설-공공청사", "이용가능시간(기본)": "09:00 ~ 18:00 (월-금)", "이용가능시간(추가/주말)": null, "이용구분": "누구나 이용가능", "Latitude": 37.642145, "Longitude": 126.645123 }, "geometry": { "type": "Point", "coordinates": [ 126.645123, 37.642145 ] } },
{ "type": "Feature", "properties": { "주소": "경기도 김포시 전원로38번길 86", "시설명": "전원마을3단지경로당", "시설구분": "특정계층이용시설-회원이용시설", "이용가능시간(기본)": "13:00 ~ 17:00 (월-일)", "이용가능시간(추가/주말)": null, "이용구분": "특정인 이용가능", "Latitude": 37.638541, "Longitude": 126.685412 }, "geometry": { "type": "Point", "coordinates": [ 126.685412, 37.638541 ] } },
{ "type": "Feature", "properties": { "주소": "경기도 김포시 모담공원로 32", "시설명": "운양동행정복지센터", "시설구분": "공공시설-공공청사", "이용가능시간(기본)": "09:00 ~ 18:00 (월-금)", "이용가능시간(추가/주말)": null, "이용구분": "누구나 이용가능", "Latitude": 37.658541, "Longitude": 126.678541 }, "geometry": { "type": "Point", "coordinates": [ 126.678541, 37.658541 ] } },
{ "type": "Feature", "properties": { "주소": "경기도 김포시 김포대로1518번길 30", "시설명": "발산마을회관", "시설구분": "공공시설-복지·문화·체육시설", "이용가능시간(기본)": "13:00 ~ 17:00 (월-일)", "이용가능시간(추가/주말)": null, "이용구분": "누구나 이용가능", "Latitude": 37.661245, "Longitude": 126.675412 }, "geometry": { "type": "Point", "coordinates": [ 126.675412, 37.661245 ] } },
{ "type": "Feature", "properties": { "주소": "경기도 김포시 모담공원로 118", "시설명": "모담도서관", "시설구분": "공공시설-복지·문화·체육시설", "이용가능시간(기본)": "09:00 ~ 22:00 (화-금)", "이용가능시간(추가/주말)": null, "이용구분": "누구나 이용가능", "Latitude": 37.665412, "Longitude": 126.672145 }, "geometry": { "type": "Point", "coordinates": [ 126.672145, 37.665412 ] } },
{ "type": "Feature", "properties": { "주소": "경기도 김포시 운양로 174", "시설명": "성창아파트경로당", "시설구분": "특정계층이용시설-회원이용시설", "이용가능시간(기본)": "13:00 ~ 17:00 (월-일)", "이용가능시간(추가/주말)": null, "이용구분": "특정인 이용가능", "Latitude": 37.668541, "Longitude": 126.668541 }, "geometry": { "type": "Point", "coordinates": [ 126.668541, 37.668541 ] } },
{ "type": "Feature", "properties": { "주소": "경기도 김포시 운양로63번길 2", "시설명": "대촌경로당", "시설구분": "특정계층이용시설-회원이용시설", "이용가능시간(기본)": "13:00 ~ 17:00 (월-일)", "이용가능시간(추가/주말)": null, "이용구분": "특정인 이용가능", "Latitude": 37.671245, "Longitude": 126.665412 }, "geometry": { "type": "Point", "coordinates": [ 126.665412, 37.671245 ] } },
{ "type": "Feature", "properties": { "주소": "경기도 김포시 운양로 88-4", "시설명": "제촌경로당", "시설구분": "특정계층이용시설-회원이용시설", "이용가능시간(기본)": "13:00 ~ 17:00 (월-일)", "이용가능시간(추가/주말)": null, "이용구분": "특정인 이용가능", "Latitude": 37.675412, "Longitude": 126.661245 }, "geometry": { "type": "Point", "coordinates": [ 126.661245, 37.675412 ] } },
{ "type": "Feature", "properties": { "주소": "경기도 김포시 김포한강11로 158", "시설명": "전원마을4단지경로당", "시설구분": "특정계층이용시설-회원이용시설", "이용가능시간(기본)": "13:00 ~ 17:00 (월-일)", "이용가능시간(추가/주말)": null, "이용구분": "특정인 이용가능", "Latitude": 37.632411, "Longitude": 126.685412 }, "geometry": { "type": "Point", "coordinates": [ 126.685412, 37.632411 ] } },
{ "type": "Feature", "properties": { "주소": "경기도 김포시 전원로 24", "시설명": "전원마을1단지경로당", "시설구분": "특정계층이용시설-회원이용시설", "이용가능시간(기본)": "13:00 ~ 17:00 (월-일)", "이용가능시간(추가/주말)": null, "이용구분": "특정인 이용가능", "Latitude": 37.635412, "Longitude": 126.688541 }, "geometry": { "type": "Point", "coordinates": [ 126.688541, 37.635412 ] } },
{ "type": "Feature", "properties": { "주소": "경기도 김포시 전원로 44", "시설명": "전원마을2단지경로당", "시설구분": "특정계층이용시설-회원이용시설", "이용가능시간(기본)": "13:00 ~ 17:00 (월-일)", "이용가능시간(추가/주말)": null, "이용구분": "특정인 이용가능", "Latitude": 37.632411, "Longitude": 126.685412 }, "geometry": { "type": "Point", "coordinates": [ 126.685412, 37.632411 ] } }
]
}
