{
"type": "FeatureCollection",
"name": "safehouse",
"crs": { "type": "name", "properties": { "name": "urn:ogc:def:crs:OGC:1.3:CRS84" } },
"features": [
{ "type": "Feature", "properties": { "fid": 663, "fclty_nm": "(풍무)건강 프라자 약국", "fclty_ty": "아동안전지킴이집", "adres": "경기도 김포시 유현로 19-0", "telno": "031-998-0295" }, "geometry": { "type": "Point", "coordinates": [ 126.722762299972629, 37.598562060023077 ] } },
{ "type": "Feature", "properties": { "fid": 664, "fclty_nm": "(풍무)소망아트", "fclty_ty": "아동안전지킴이집", "adres": "경기도 김포시 유현로33번길 36-12", "telno": "031-984-5400" }, "geometry": { "type": "Point", "coordinates": [ 126.726150300019285, 37.598246339971197 ] } },
{ "type": "Feature", "properties": { "fid": 1, "fclty_nm": "(고촌)cu리버시티 2단지점", "fclty_ty": "아동안전지킴이집", "adres": "경기도 김포시 상미로 38-0,2단지 1게이트 상가 끝라인", "telno": "031-998-0783" }, "geometry": { "type": "Point", "coordinates": [ 126.744649900002386, 37.620178179996728 ] } },
{ "type": "Feature", "properties": { "fid": 4, "fclty_nm": "(고촌)파리바게뜨 김포향산점", "fclty_ty": "아동안전지킴이집", "adres": "경기도 김포시 상미1로 4-0,102호", "telno": "031-983-3383" }, "geometry": { "type": "Point", "coordinates": [ 126.747313700006202, 37.618191650013515 ] } },
{ "type": "Feature", "properties": { "fid": 3, "fclty_nm": "(고촌)세븐일레븐", "fclty_ty": "아동안전지킴이집", "adres": "경기도 김포시 장곡로 54-0", "telno": "031-997-3205" }, "geometry": { "type": "Point", "coordinates": [ 126.749501700043439, 37.606952090007994 ] } },
{ "type": "Feature", "properties": { "fid": 2, "fclty_nm": "(고촌)길훈문구", "fclty_ty": "아동안전지킴이집", "adres": "경기도 김포시 장차로 23-0", "telno": "031-985-1812" }, "geometry": { "type": "Point", "coordinates": [ 126.77053189999603, 37.604094859978098 ] } },
{ "type": "Feature", "properties": { "fid": 5391, "fclty_nm": "삼성스토어 김포본", "fclty_ty": "아동안전지킴이집", "adres": "경기도 김포시 풍무로 237-0", "telno": "031-983-2003" }, "geometry": { "type": "Point", "coordinates": [ 126.725290300037983, 37.616489900033748 ] } },
{ "type": "Feature", "properties": { "fid": 8, "fclty_nm": "(대곶)훈기상회(훈이네마트)", "fclty_ty": "아동안전지킴이집", "adres": "경기도 김포시 대곶로 327-0", "telno": "031-989-4214" }, "geometry": { "type": "Point", "coordinates": [ 126.554902099958781, 37.672912040000277 ] } },
{ "type": "Feature", "properties": { "fid": 5, "fclty_nm": "(대곶)석정마트", "fclty_ty": "아동안전지킴이집", "adres": "경기도 김포시 대곶로 338-0", "telno": "031-989-2847" }, "geometry": { "type": "Point", "coordinates": [ 126.554963300023118, 37.673803310022244 ] } },
{ "type": "Feature", "properties": { "fid": 477, "fclty_nm": "(월곶)CU (김포월곶점)", "fclty_ty": "아동안전지킴이집", "adres": "경기도 김포시 애기봉로 13-0", "telno": "031-997-5146" }, "geometry": { "type": "Point", "coordinates": [ 126.555798600017198, 37.716396550025486 ] } },
{ "type": "Feature", "properties": { "fid": 556, "fclty_nm": "(통진)동경돈까스", "fclty_ty": "아동안전지킴이집", "adres": "경기도 김포시 김포대로 2501-0", "telno": "031-997-8929" }, "geometry": { "type": "Point", "coordinates": [ 126.572155500026597, 37.699815989968371 ] } },
{ "type": "Feature", "properties": { "fid": 7, "fclty_nm": "(대곶)영아트", "fclty_ty": "아동안전지킴이집", "adres": "경기도 김포시 율생중앙로 46-0", "telno": "031-981-5836" }, "geometry": { "type": "Point", "coordinates": [ 126.583422599984218, 37.65232946996538 ] } },
{ "type": "Feature", "properties": { "fid": 6, "fclty_nm": "(대곶)수남마트", "fclty_ty": "아동안전지킴이집", "adres": "경기도 김포시 수남로 22-0", "telno": "031-982-4593" }, "geometry": { "type": "Point", "coordinates": [ 126.589491699970068, 37.629205269967741 ] } },
{ "type": "Feature", "properties": { "fid": 554, "fclty_nm": "(통진)GS25 마송주공점", "fclty_ty": "아동안전지킴이집", "adres": "경기도 김포시 김포대로2270번길 16-0,김포대로2250번길 23-37", "telno": "031-989-3815" }, "geometry": { "type": "Point", "coordinates": [ 126.595011799959934, 37.690990429980268 ] } },
{ "type": "Feature", "properties": { "fid": 557, "fclty_nm": "(통진)새천년약국", "fclty_ty": "아동안전지킴이집", "adres": "경기도 김포시 조강로 35-0", "telno": "031-981-9098" }, "geometry": { "type": "Point", "coordinates": [ 126.601167800001932, 37.689380690020343 ] } },
{ "type": "Feature", "properties": { "fid": 555, "fclty_nm": "(통진)그랜드마트", "fclty_ty": "아동안전지킴이집", "adres": "경기도 김포시 조강로36번길 39-0", "telno": "031-989-5840" }, "geometry": { "type": "Point", "coordinates": [ 126.601875300004309, 37.691544090001209 ] } },
{ "type": "Feature", "properties": { "fid": 440, "fclty_nm": "(양촌)CU양곡초점", "fclty_ty": "아동안전지킴이집", "adres": "경기도 김포시 양곡로 547-0", "telno": "031-987-3867" }, "geometry": { "type": "Point", "coordinates": [ 126.62240059996499, 37.654712269993489 ] } },
{ "type": "Feature", "properties": { "fid": 441, "fclty_nm": "(양촌)후암사랑샘 약국", "fclty_ty": "아동안전지킴이집", "adres": "경기도 김포시 양곡로 537-0", "telno": "031-982-4767" }, "geometry": { "type": "Point", "coordinates": [ 126.623725500024705, 37.654861379995687 ] } },
{ "type": "Feature", "properties": { "fid": 11, "fclty_nm": "(마산)엄마손분식", "fclty_ty": "아동안전지킴이집", "adres": "경기도 김포시 김포한강10로134번길 77-0,104호", "telno": "031-989-9898" }, "geometry": { "type": "Point", "coordinates": [ 126.62465299995543, 37.642517000004027 ] } },
{ "type": "Feature", "properties": { "fid": 10, "fclty_nm": "(마산)성심약국", "fclty_ty": "아동안전지킴이집", "adres": "경기도 김포시 김포한강9로 40-0", "telno": "031-982-6547" }, "geometry": { "type": "Point", "coordinates": [ 126.627107500043877, 37.640534549977929 ] } },
{ "type": "Feature", "properties": { "fid": 9, "fclty_nm": "(마산)비즈미", "fclty_ty": "아동안전지킴이집", "adres": "경기도 김포시 김포한강4로 487-0,반도유보라4차 상가 1504호", "telno": "031-988-1253" }, "geometry": { "type": "Point", "coordinates": [ 126.629587099959721, 37.646399619994291 ] } },
{ "type": "Feature", "properties": { "fid": 665, "fclty_nm": "(하성)대성지물포", "fclty_ty": "아동안전지킴이집", "adres": "경기도 김포시 애기봉로 860-0", "telno": "031-988-8474" }, "geometry": { "type": "Point", "coordinates": [ 126.632847399997132, 37.719599419968368 ] } },
{ "type": "Feature", "properties": { "fid": 512, "fclty_nm": "(장기)산들바이크(삼천리자전거)", "fclty_ty": "아동안전지킴이집", "adres": "경기도 김포시 김포한강1로78번길 61-48", "telno": "031-989-8556" }, "geometry": { "type": "Point", "coordinates": [ 126.67238850002046, 37.644810829999038 ] } },
{ "type": "Feature", "properties": { "fid": 511, "fclty_nm": "(장기)맥과이어스 디테일링", "fclty_ty": "아동안전지킴이집", "adres": "경기도 김포시 초당로61번길 11-0,1층", "telno": "--" }, "geometry": { "type": "Point", "coordinates": [ 126.673265400007182, 37.644669469968882 ] } },
{ "type": "Feature", "properties": { "fid": 476, "fclty_nm": "(운양)센타약국", "fclty_ty": "아동안전지킴이집", "adres": "경기도 김포시 전원로 44-0", "telno": "031-983-4986" }, "geometry": { "type": "Point", "coordinates": [ 126.684876099991428, 37.646820010031036 ] } },
{ "type": "Feature", "properties": { "fid": 273, "fclty_nm": "(사우)주연메디칼약국", "fclty_ty": "아동안전지킴이집", "adres": "경기도 김포시 중봉로 9-0", "telno": "031-993-9799" }, "geometry": { "type": "Point", "coordinates": [ 126.69714919996936, 37.62330938999348 ] } },
{ "type": "Feature", "properties": { "fid": 272, "fclty_nm": "(사우)월드문구", "fclty_ty": "아동안전지킴이집", "adres": "경기도 김포시 봉화로 180-0", "telno": "031-982-5534" }, "geometry": { "type": "Point", "coordinates": [ 126.701945799973515, 37.62806047001272 ] } },
{ "type": "Feature", "properties": { "fid": 269, "fclty_nm": "(사우)세븐일레븐 김포대우점", "fclty_ty": "아동안전지킴이집", "adres": "경기도 김포시 봉화로182번길 29-0", "telno": "031-984-1893" }, "geometry": { "type": "Point", "coordinates": [ 126.702896800011743, 37.629015530024475 ] } },
{ "type": "Feature", "properties": { "fid": 265, "fclty_nm": "(사우)GS25 김포북변점", "fclty_ty": "아동안전지킴이집", "adres": "경기도 김포시 봉화로 167-0", "telno": "--031" }, "geometry": { "type": "Point", "coordinates": [ 126.702988199998657, 37.626969239986856 ] } },
{ "type": "Feature", "properties": { "fid": 271, "fclty_nm": "(사우)아트문구", "fclty_ty": "아동안전지킴이집", "adres": "경기도 김포시 북변중로65번길 33-0", "telno": "031-984-2648" }, "geometry": { "type": "Point", "coordinates": [ 126.710856900023757, 37.625780159992907 ] } },
{ "type": "Feature", "properties": { "fid": 267, "fclty_nm": "(사우)cu사우중앙점", "fclty_ty": "아동안전지킴이집", "adres": "경기도 김포시 돌문로86번길 12-17", "telno": "--" }, "geometry": { "type": "Point", "coordinates": [ 126.715415099997401, 37.621581280026831 ] } },
{ "type": "Feature", "properties": { "fid": 264, "fclty_nm": "(사우)CU 김포등기소점", "fclty_ty": "아동안전지킴이집", "adres": "경기도 김포시 봉화로 13-0", "telno": "031-985-5570" }, "geometry": { "type": "Point", "coordinates": [ 126.715968899961453, 37.618134070007059 ] } },
{ "type": "Feature", "properties": { "fid": 189, "fclty_nm": "(사우)CU 사우공원점", "fclty_ty": "아동안전지킴이집", "adres": "경기도 김포시 돌문로 50-12", "telno": "031-986-6776" }, "geometry": { "type": "Point", "coordinates": [ 126.718098400000571, 37.619938770019836 ] } },
{ "type": "Feature", "properties": { "fid": 266, "fclty_nm": "(사우)GS25(김포프라자점)", "fclty_ty": "아동안전지킴이집", "adres": "경기도 김포시 사우중로73번길 38-0", "telno": "031-982-1670" }, "geometry": { "type": "Point", "coordinates": [ 126.720671300019774, 37.622528939980363 ] } },
{ "type": "Feature", "properties": { "fid": 270, "fclty_nm": "(사우)세븐일레븐 청원점", "fclty_ty": "아동안전지킴이집", "adres": "경기도 김포시 사우중로 92-0", "telno": "031-981-0125" }, "geometry": { "type": "Point", "coordinates": [ 126.721754900017785, 37.622436999982362 ] } },
{ "type": "Feature", "properties": { "fid": 268, "fclty_nm": "(사우)세븐일레븐 김포3호점", "fclty_ty": "아동안전지킴이집", "adres": "경기도 김포시 사우중로74번길 39-0,104호", "telno": "031-988-5874" }, "geometry": { "type": "Point", "coordinates": [ 126.721778400035447, 37.621995079984551 ] } }
]
}
