{
"type": "FeatureCollection",
"name": "safehouse",
"crs": { "type": "name", "properties": { "name": "urn:ogc:def:crs:OGC:1.3:CRS84" } },
"features": [
{ "type": "Feature", "properties": { "fid": 663, "ctprvn_cd": 41, "objt_id": 251007, "fclty_cd": 504040, "rn_adres": null, "fclty_nm": "(풍무)건강 프라자 약국", "sgg_cd": null, "fclty_ty": "아동안전지킴이집", "adres": "경기도 김포시 유현로 19-0", "telno": "031-998-0295", "x": 14106713.37115, "data_yr": null, "y": 4522870.2854199996, "emd_cd": 41570107 }, "geometry": { "type": "Point", "coordinates": [ 126.722762299972629, 37.598562060023077 ] } },
{ "type": "Feature", "properties": { "fid": 664, "ctprvn_cd": 41, "objt_id": 251008, "fclty_cd": 504040, "rn_adres": null, "fclty_nm": "(풍무)소망아트", "sgg_cd": null, "fclty_ty": "아동안전지킴이집", "adres": "경기도 김포시 유현로33번길 36-12", "telno": "031-984-5400", "x": 14107090.52159, "data_yr": null, "y": 4522825.9265900003, "emd_cd": 41570107 }, "geometry": { "type": "Point", "coordinates": [ 126.726150300019285, 37.598246339971197 ] } },
{ "type": "Feature", "properties": { "fid": 1, "ctprvn_cd": 41, "objt_id": 250345, "fclty_cd": 504040, "rn_adres": null, "fclty_nm": "(고촌)cu리버시티 2단지점", "sgg_cd": null, "fclty_ty": "아동안전지킴이집", "adres": "경기도 김포시 상미로 38-0,2단지 1게이트 상가 끝라인", "telno": "031-998-0783", "x": 14109149.887639999, "data_yr": null, "y": 4525907.8091900004, "emd_cd": 41570253 }, "geometry": { "type": "Point", "coordinates": [ 126.744649900002386, 37.620178179996728 ] } },
{ "type": "Feature", "properties": { "fid": 4, "ctprvn_cd": 41, "objt_id": 250348, "fclty_cd": 504040, "rn_adres": null, "fclty_nm": "(고촌)파리바게뜨 김포향산점", "sgg_cd": null, "fclty_ty": "아동안전지킴이집", "adres": "경기도 김포시 상미1로 4-0,102호", "telno": "031-983-3383", "x": 14109446.420499999, "data_yr": null, "y": 4525628.6227099998, "emd_cd": 41570253 }, "geometry": { "type": "Point", "coordinates": [ 126.747313700006202, 37.618191650013515 ] } },
{ "type": "Feature", "properties": { "fid": 3, "ctprvn_cd": 41, "objt_id": 250347, "fclty_cd": 504040, "rn_adres": null, "fclty_nm": "(고촌)세븐일레븐", "sgg_cd": null, "fclty_ty": "아동안전지킴이집", "adres": "경기도 김포시 장곡로 54-0", "telno": "031-997-3205", "x": 14109689.98755, "data_yr": null, "y": 4524049.1579299998, "emd_cd": 41570253 }, "geometry": { "type": "Point", "coordinates": [ 126.749501700043439, 37.606952090007994 ] } },
{ "type": "Feature", "properties": { "fid": 2, "ctprvn_cd": 41, "objt_id": 250346, "fclty_cd": 504040, "rn_adres": null, "fclty_nm": "(고촌)길훈문구", "sgg_cd": null, "fclty_ty": "아동안전지킴이집", "adres": "경기도 김포시 장차로 23-0", "telno": "031-985-1812", "x": 14112031.058700001, "data_yr": null, "y": 4523647.67722, "emd_cd": 41570253 }, "geometry": { "type": "Point", "coordinates": [ 126.77053189999603, 37.604094859978098 ] } },
{ "type": "Feature", "properties": { "fid": 5391, "ctprvn_cd": 41, "objt_id": 255735, "fclty_cd": 504040, "rn_adres": null, "fclty_nm": "삼성스토어 김포본", "sgg_cd": null, "fclty_ty": "아동안전지킴이집", "adres": "경기도 김포시 풍무로 237-0", "telno": "031-983-2003", "x": 14106994.786830001, "data_yr": null, "y": 4525389.4650800005, "emd_cd": 41570106 }, "geometry": { "type": "Point", "coordinates": [ 126.725290300037983, 37.616489900033748 ] } },
{ "type": "Feature", "properties": { "fid": 8, "ctprvn_cd": 41, "objt_id": 250352, "fclty_cd": 504040, "rn_adres": null, "fclty_nm": "(대곶)훈기상회(훈이네마트)", "sgg_cd": null, "fclty_ty": "아동안전지킴이집", "adres": "경기도 김포시 대곶로 327-0", "telno": "031-989-4214", "x": 14088027.259160001, "data_yr": null, "y": 4533321.7438300001, "emd_cd": 41570340 }, "geometry": { "type": "Point", "coordinates": [ 126.554902099958781, 37.672912040000277 ] } },
{ "type": "Feature", "properties": { "fid": 5, "ctprvn_cd": 41, "objt_id": 250349, "fclty_cd": 504040, "rn_adres": null, "fclty_nm": "(대곶)석정마트", "sgg_cd": null, "fclty_ty": "아동안전지킴이집", "adres": "경기도 김포시 대곶로 338-0", "telno": "031-989-2847", "x": 14088034.07192, "data_yr": null, "y": 4533447.0941099999, "emd_cd": 41570340 }, "geometry": { "type": "Point", "coordinates": [ 126.554963300023118, 37.673803310022244 ] } },
{ "type": "Feature", "properties": { "fid": 477, "ctprvn_cd": 41, "objt_id": 250821, "fclty_cd": 504040, "rn_adres": null, "fclty_nm": "(월곶)CU (김포월곶점)", "sgg_cd": null, "fclty_ty": "아동안전지킴이집", "adres": "경기도 김포시 애기봉로 13-0", "telno": "031-997-5146", "x": 14088127.057089999, "data_yr": null, "y": 4539439.2625200003, "emd_cd": 41570350 }, "geometry": { "type": "Point", "coordinates": [ 126.555798600017198, 37.716396550025486 ] } },
{ "type": "Feature", "properties": { "fid": 556, "ctprvn_cd": 41, "objt_id": 250900, "fclty_cd": 504040, "rn_adres": null, "fclty_nm": "(통진)동경돈까스", "sgg_cd": null, "fclty_ty": "아동안전지킴이집", "adres": "경기도 김포시 김포대로 2501-0", "telno": "031-997-8929", "x": 14089947.898870001, "data_yr": null, "y": 4537106.2411799999, "emd_cd": 41570250 }, "geometry": { "type": "Point", "coordinates": [ 126.572155500026597, 37.699815989968371 ] } },
{ "type": "Feature", "properties": { "fid": 7, "ctprvn_cd": 41, "objt_id": 250351, "fclty_cd": 504040, "rn_adres": null, "fclty_nm": "(대곶)영아트", "sgg_cd": null, "fclty_ty": "아동안전지킴이집", "adres": "경기도 김포시 율생중앙로 46-0", "telno": "031-981-5836", "x": 14091202.1467, "data_yr": null, "y": 4530427.3822299996, "emd_cd": 41570340 }, "geometry": { "type": "Point", "coordinates": [ 126.583422599984218, 37.65232946996538 ] } },
{ "type": "Feature", "properties": { "fid": 6, "ctprvn_cd": 41, "objt_id": 250350, "fclty_cd": 504040, "rn_adres": null, "fclty_nm": "(대곶)수남마트", "sgg_cd": null, "fclty_ty": "아동안전지킴이집", "adres": "경기도 김포시 수남로 22-0", "telno": "031-982-4593", "x": 14091877.755820001, "data_yr": null, "y": 4527176.5683800001, "emd_cd": 41570340 }, "geometry": { "type": "Point", "coordinates": [ 126.589491699970068, 37.629205269967741 ] } },
{ "type": "Feature", "properties": { "fid": 554, "ctprvn_cd": 41, "objt_id": 250898, "fclty_cd": 504040, "rn_adres": null, "fclty_nm": "(통진)GS25 마송주공점", "sgg_cd": null, "fclty_ty": "아동안전지킴이집", "adres": "경기도 김포시 김포대로2270번길 16-0,김포대로2250번길 23-37", "telno": "031-989-3815", "x": 14092492.250539999, "data_yr": null, "y": 4535864.6250099996, "emd_cd": 41570250 }, "geometry": { "type": "Point", "coordinates": [ 126.595011799959934, 37.690990429980268 ] } },
{ "type": "Feature", "properties": { "fid": 557, "ctprvn_cd": 41, "objt_id": 250901, "fclty_cd": 504040, "rn_adres": null, "fclty_nm": "(통진)새천년약국", "sgg_cd": null, "fclty_ty": "아동안전지킴이집", "adres": "경기도 김포시 조강로 35-0", "telno": "031-981-9098", "x": 14093177.533329999, "data_yr": null, "y": 4535638.1760900002, "emd_cd": 41570250 }, "geometry": { "type": "Point", "coordinates": [ 126.601167800001932, 37.689380690020343 ] } },
{ "type": "Feature", "properties": { "fid": 555, "ctprvn_cd": 41, "objt_id": 250899, "fclty_cd": 504040, "rn_adres": null, "fclty_nm": "(통진)그랜드마트", "sgg_cd": null, "fclty_ty": "아동안전지킴이집", "adres": "경기도 김포시 조강로36번길 39-0", "telno": "031-989-5840", "x": 14093256.29187, "data_yr": null, "y": 4535942.5118399998, "emd_cd": 41570250 }, "geometry": { "type": "Point", "coordinates": [ 126.601875300004309, 37.691544090001209 ] } },
{ "type": "Feature", "properties": { "fid": 440, "ctprvn_cd": 41, "objt_id": 250784, "fclty_cd": 504040, "rn_adres": null, "fclty_nm": "(양촌)CU양곡초점", "sgg_cd": null, "fclty_ty": "아동안전지킴이집", "adres": "경기도 김포시 양곡로 547-0", "telno": "031-987-3867", "x": 14095541.157810001, "data_yr": null, "y": 4530762.4151999997, "emd_cd": 41570256 }, "geometry": { "type": "Point", "coordinates": [ 126.62240059996499, 37.654712269993489 ] } },
{ "type": "Feature", "properties": { "fid": 441, "ctprvn_cd": 41, "objt_id": 250785, "fclty_cd": 504040, "rn_adres": null, "fclty_nm": "(양촌)후암사랑샘 약국", "sgg_cd": null, "fclty_ty": "아동안전지킴이집", "adres": "경기도 김포시 양곡로 537-0", "telno": "031-982-4767", "x": 14095688.64501, "data_yr": null, "y": 4530783.3811299996, "emd_cd": 41570256 }, "geometry": { "type": "Point", "coordinates": [ 126.623725500024705, 37.654861379995687 ] } },
{ "type": "Feature", "properties": { "fid": 11, "ctprvn_cd": 41, "objt_id": 250355, "fclty_cd": 504040, "rn_adres": null, "fclty_nm": "(마산)엄마손분식", "sgg_cd": null, "fclty_ty": "아동안전지킴이집", "adres": "경기도 김포시 김포한강10로134번길 77-0,104호", "telno": "031-989-9898", "x": 14095791.893829999, "data_yr": null, "y": 4529047.8157500001, "emd_cd": 41570109 }, "geometry": { "type": "Point", "coordinates": [ 126.62465299995543, 37.642517000004027 ] } },
{ "type": "Feature", "properties": { "fid": 10, "ctprvn_cd": 41, "objt_id": 250354, "fclty_cd": 504040, "rn_adres": null, "fclty_nm": "(마산)성심약국", "sgg_cd": null, "fclty_ty": "아동안전지킴이집", "adres": "경기도 김포시 김포한강9로 40-0", "telno": "031-982-6547", "x": 14096065.127529999, "data_yr": null, "y": 4528769.1189000001, "emd_cd": 41570109 }, "geometry": { "type": "Point", "coordinates": [ 126.627107500043877, 37.640534549977929 ] } },
{ "type": "Feature", "properties": { "fid": 9, "ctprvn_cd": 41, "objt_id": 250353, "fclty_cd": 504040, "rn_adres": null, "fclty_nm": "(마산)비즈미", "sgg_cd": null, "fclty_ty": "아동안전지킴이집", "adres": "경기도 김포시 김포한강4로 487-0,반도유보라4차 상가 1504호", "telno": "031-988-1253", "x": 14096341.15533, "data_yr": null, "y": 4529593.6639, "emd_cd": 41570109 }, "geometry": { "type": "Point", "coordinates": [ 126.629587099959721, 37.646399619994291 ] } },
{ "type": "Feature", "properties": { "fid": 665, "ctprvn_cd": 41, "objt_id": 251009, "fclty_cd": 504040, "rn_adres": null, "fclty_nm": "(하성)대성지물포", "sgg_cd": null, "fclty_ty": "아동안전지킴이집", "adres": "경기도 김포시 애기봉로 860-0", "telno": "031-988-8474", "x": 14096704.09027, "data_yr": null, "y": 4539889.9928599996, "emd_cd": 41570360 }, "geometry": { "type": "Point", "coordinates": [ 126.632847399997132, 37.719599419968368 ] } },
{ "type": "Feature", "properties": { "fid": 512, "ctprvn_cd": 41, "objt_id": 250856, "fclty_cd": 504040, "rn_adres": null, "fclty_nm": "(장기)산들바이크(삼천리자전거)", "sgg_cd": null, "fclty_ty": "아동안전지킴이집", "adres": "경기도 김포시 김포한강1로78번길 61-48", "telno": "031-989-8556", "x": 14101105.785390001, "data_yr": null, "y": 4529370.2963100001, "emd_cd": 41570104 }, "geometry": { "type": "Point", "coordinates": [ 126.67238850002046, 37.644810829999038 ] } },
{ "type": "Feature", "properties": { "fid": 511, "ctprvn_cd": 41, "objt_id": 250855, "fclty_cd": 504040, "rn_adres": null, "fclty_nm": "(장기)맥과이어스 디테일링", "sgg_cd": null, "fclty_ty": "아동안전지킴이집", "adres": "경기도 김포시 초당로61번길 11-0,1층", "telno": "--", "x": 14101203.401450001, "data_yr": null, "y": 4529350.4227700001, "emd_cd": 41570104 }, "geometry": { "type": "Point", "coordinates": [ 126.673265400007182, 37.644669469968882 ] } },
{ "type": "Feature", "properties": { "fid": 476, "ctprvn_cd": 41, "objt_id": 250820, "fclty_cd": 504040, "rn_adres": null, "fclty_nm": "(운양)센타약국", "sgg_cd": null, "fclty_ty": "아동안전지킴이집", "adres": "경기도 김포시 전원로 44-0", "telno": "031-983-4986", "x": 14102495.89866, "data_yr": null, "y": 4529652.7672300003, "emd_cd": 41570104 }, "geometry": { "type": "Point", "coordinates": [ 126.684876099991428, 37.646820010031036 ] } },
{ "type": "Feature", "properties": { "fid": 273, "ctprvn_cd": 41, "objt_id": 250617, "fclty_cd": 504040, "rn_adres": null, "fclty_nm": "(사우)주연메디칼약국", "sgg_cd": null, "fclty_ty": "아동안전지킴이집", "adres": "경기도 김포시 중봉로 9-0", "telno": "031-993-9799", "x": 14103862.1339, "data_yr": null, "y": 4526347.8838900002, "emd_cd": 41570105 }, "geometry": { "type": "Point", "coordinates": [ 126.69714919996936, 37.62330938999348 ] } },
{ "type": "Feature", "properties": { "fid": 272, "ctprvn_cd": 41, "objt_id": 250616, "fclty_cd": 504040, "rn_adres": null, "fclty_nm": "(사우)월드문구", "sgg_cd": null, "fclty_ty": "아동안전지킴이집", "adres": "경기도 김포시 봉화로 180-0", "telno": "031-982-5534", "x": 14104396.08897, "data_yr": null, "y": 4527015.658, "emd_cd": 41570101 }, "geometry": { "type": "Point", "coordinates": [ 126.701945799973515, 37.62806047001272 ] } },
{ "type": "Feature", "properties": { "fid": 269, "ctprvn_cd": 41, "objt_id": 250613, "fclty_cd": 504040, "rn_adres": null, "fclty_nm": "(사우)세븐일레븐 김포대우점", "sgg_cd": null, "fclty_ty": "아동안전지킴이집", "adres": "경기도 김포시 봉화로182번길 29-0", "telno": "031-984-1893", "x": 14104501.953810001, "data_yr": null, "y": 4527149.8988100002, "emd_cd": 41570101 }, "geometry": { "type": "Point", "coordinates": [ 126.702896800011743, 37.629015530024475 ] } },
{ "type": "Feature", "properties": { "fid": 265, "ctprvn_cd": 41, "objt_id": 250609, "fclty_cd": 504040, "rn_adres": null, "fclty_nm": "(사우)GS25 김포북변점", "sgg_cd": null, "fclty_ty": "아동안전지킴이집", "adres": "경기도 김포시 봉화로 167-0", "telno": "--031", "x": 14104512.12841, "data_yr": null, "y": 4526862.2795900004, "emd_cd": 41570101 }, "geometry": { "type": "Point", "coordinates": [ 126.702988199998657, 37.626969239986856 ] } },
{ "type": "Feature", "properties": { "fid": 271, "ctprvn_cd": 41, "objt_id": 250615, "fclty_cd": 504040, "rn_adres": null, "fclty_nm": "(사우)아트문구", "sgg_cd": null, "fclty_ty": "아동안전지킴이집", "adres": "경기도 김포시 북변중로65번길 33-0", "telno": "031-984-2648", "x": 14105388.068089999, "data_yr": null, "y": 4526695.1503900001, "emd_cd": 41570101 }, "geometry": { "type": "Point", "coordinates": [ 126.710856900023757, 37.625780159992907 ] } },
{ "type": "Feature", "properties": { "fid": 267, "ctprvn_cd": 41, "objt_id": 250611, "fclty_cd": 504040, "rn_adres": null, "fclty_nm": "(사우)cu사우중앙점", "sgg_cd": null, "fclty_ty": "아동안전지킴이집", "adres": "경기도 김포시 돌문로86번길 12-17", "telno": "--", "x": 14105895.48459, "data_yr": null, "y": 4526105.0050499998, "emd_cd": 41570106 }, "geometry": { "type": "Point", "coordinates": [ 126.715415099997401, 37.621581280026831 ] } },
{ "type": "Feature", "properties": { "fid": 264, "ctprvn_cd": 41, "objt_id": 250608, "fclty_cd": 504040, "rn_adres": null, "fclty_nm": "(사우)CU 김포등기소점", "sgg_cd": null, "fclty_ty": "아동안전지킴이집", "adres": "경기도 김포시 봉화로 13-0", "telno": "031-985-5570", "x": 14105957.13332, "data_yr": null, "y": 4525620.5305399997, "emd_cd": 41570106 }, "geometry": { "type": "Point", "coordinates": [ 126.715968899961453, 37.618134070007059 ] } },
{ "type": "Feature", "properties": { "fid": 189, "ctprvn_cd": 41, "objt_id": 250533, "fclty_cd": 504040, "rn_adres": null, "fclty_nm": "(사우)CU 사우공원점", "sgg_cd": null, "fclty_ty": "아동안전지킴이집", "adres": "경기도 김포시 돌문로 50-12", "telno": "031-986-6776", "x": 14106194.18818, "data_yr": null, "y": 4525874.1621700004, "emd_cd": 41570106 }, "geometry": { "type": "Point", "coordinates": [ 126.718098400000571, 37.619938770019836 ] } },
{ "type": "Feature", "properties": { "fid": 266, "ctprvn_cd": 41, "objt_id": 250610, "fclty_cd": 504040, "rn_adres": null, "fclty_nm": "(사우)GS25(김포프라자점)", "sgg_cd": null, "fclty_ty": "아동안전지킴이집", "adres": "경기도 김포시 사우중로73번길 38-0", "telno": "031-982-1670", "x": 14106480.6021, "data_yr": null, "y": 4526238.1941099996, "emd_cd": 41570101 }, "geometry": { "type": "Point", "coordinates": [ 126.720671300019774, 37.622528939980363 ] } },
{ "type": "Feature", "properties": { "fid": 270, "ctprvn_cd": 41, "objt_id": 250614, "fclty_cd": 504040, "rn_adres": null, "fclty_nm": "(사우)세븐일레븐 청원점", "sgg_cd": null, "fclty_ty": "아동안전지킴이집", "adres": "경기도 김포시 사우중로 92-0", "telno": "031-981-0125", "x": 14106601.2279, "data_yr": null, "y": 4526225.2723099999, "emd_cd": 41570106 }, "geometry": { "type": "Point", "coordinates": [ 126.721754900017785, 37.622436999982362 ] } },
{ "type": "Feature", "properties": { "fid": 268, "ctprvn_cd": 41, "objt_id": 250612, "fclty_cd": 504040, "rn_adres": null, "fclty_nm": "(사우)세븐일레븐 김포3호점", "sgg_cd": null, "fclty_ty": "아동안전지킴이집", "adres": "경기도 김포시 사우중로74번길 39-0,104호", "telno": "031-988-5874", "x": 14106603.843909999, "data_yr": null, "y": 4526163.1624400001, "emd_cd": 41570106 }, "geometry": { "type": "Point", "coordinates": [ 126.721778400035447, 37.621995079984551 ] } }
]
}
